{
  "authenticated": false,
  "repeaters": [
    {
      "id": "13",
      "name": "Cumberland GMRS Repeater Group",
      "frequencyOut": "46X.700",
      "toneIn": "",
      "location": {
        "latitude": 39.4862,
        "longitude": -75.02611
      },
      "radius": "",
      "haat": "0",
      "status": "Offline"
    },
    {
      "id": "16",
      "name": "Lakeland 675",
      "frequencyOut": "46X.675",
      "toneIn": "",
      "location": {
        "latitude": 28.03168,
        "longitude": -81.95938
      },
      "radius": "",
      "haat": "150",
      "status": "Online"
    },
    {
      "id": "33",
      "name": "Greater Hartford GMRS",
      "frequencyOut": "46X.650",
      "toneIn": "",
      "location": {
        "latitude": 41.76333,
        "longitude": -72.67407
      },
      "radius": "",
      "haat": "600",
      "status": "Online"
    },
    {
      "id": "35",
      "name": "Crestline-725",
      "frequencyOut": "46X.725",
      "toneIn": "",
      "location": {
        "latitude": 33.76545,
        "longitude": -116.958
      },
      "radius": "",
      "haat": "0",
      "status": "Online"
    },
    {
      "id": "36",
      "name": "Valley 3",
      "frequencyOut": "46X.625",
      "toneIn": "",
      "location": {
        "latitude": 0,
        "longitude": 0
      },
      "radius": "",
      "haat": "0",
      "status": "Online"
    },
    {
      "id": "38",
      "name": "Westminster -- GREEN",
      "frequencyOut": "46X.675",
      "toneIn": "",
      "location": {
        "latitude": 33.75927,
        "longitude": -118.01596
      },
      "radius": "20",
      "haat": "0",
      "status": "Offline"
    },
    {
      "id": "41",
      "name": "Green Brook",
      "frequencyOut": "46X.625",
      "toneIn": "",
      "location": {
        "latitude": 40.61219,
        "longitude": -74.47385
      },
      "radius": "",
      "haat": "400",
      "status": "Offline"
    },
    {
      "id": "43",
      "name": "WESTMINSTER GREEN 1",
      "frequencyOut": "46X.625",
      "toneIn": "",
      "location": {
        "latitude": 33.75777,
        "longitude": -118.01334
      },
      "radius": "",
      "haat": "50",
      "status": "Offline"
    },
    {
      "id": "47",
      "name": "Rockville Primary",
      "frequencyOut": "46X.700",
      "toneIn": "",
      "location": {
        "latitude": 0,
        "longitude": 0
      },
      "radius": "",
      "haat": "0",
      "status": "Online"
    },
    {
      "id": "48",
      "name": "White Oak",
      "frequencyOut": "46X.650",
      "toneIn": "",
      "location": {
        "latitude": 0,
        "longitude": 0
      },
      "radius": "",
      "haat": "0",
      "status": "Online"
    },
    {
      "id": "50",
      "name": "Dutchess/Putnam County REACT",
      "frequencyOut": "46X.700",
      "toneIn": "",
      "location": {
        "latitude": 0,
        "longitude": 0
      },
      "radius": "",
      "haat": "0",
      "status": "Online"
    },
    {
      "id": "51",
      "name": "Melbourne 725",
      "frequencyOut": "46X.725",
      "toneIn": "",
      "location": {
        "latitude": 28.08022,
        "longitude": -80.60779
      },
      "radius": "20",
      "haat": "0",
      "status": "Offline"
    },
    {
      "id": "52",
      "name": "Glendora",
      "frequencyOut": "46X.575",
      "toneIn": "",
      "location": {
        "latitude": 0,
        "longitude": 0
      },
      "radius": "",
      "haat": "0",
      "status": "Online"
    },
    {
      "id": "53",
      "name": "Lakes Area GMRS Repeater Group",
      "frequencyOut": "46X.625",
      "toneIn": "",
      "location": {
        "latitude": 44.54393,
        "longitude": -89.09297
      },
      "radius": "",
      "haat": "0",
      "status": "Online"
    },
    {
      "id": "54",
      "name": "Monroe Township",
      "frequencyOut": "46X.675",
      "toneIn": "",
      "location": {
        "latitude": 0,
        "longitude": 0
      },
      "radius": "",
      "haat": "0",
      "status": "Offline"
    },
    {
      "id": "56",
      "name": "Big Rock",
      "frequencyOut": "46X.550",
      "toneIn": "",
      "location": {
        "latitude": 0,
        "longitude": 0
      },
      "radius": "",
      "haat": "0",
      "status": "Online"
    },
    {
      "id": "57",
      "name": "Nazareth",
      "frequencyOut": "46X.675",
      "toneIn": "",
      "location": {
        "latitude": 0,
        "longitude": 0
      },
      "radius": "",
      "haat": "0",
      "status": "Online"
    },
    {
      "id": "58",
      "name": "Savercool",
      "frequencyOut": "46X.625",
      "toneIn": "",
      "location": {
        "latitude": 0,
        "longitude": 0
      },
      "radius": "",
      "haat": "0",
      "status": "Online"
    },
    {
      "id": "59",
      "name": "Wind Gap",
      "frequencyOut": "46X.600",
      "toneIn": "",
      "location": {
        "latitude": 40.85,
        "longitude": -75.291
      },
      "radius": "",
      "haat": "0",
      "status": "Offline"
    },
    {
      "id": "60",
      "name": "Mike Burge",
      "frequencyOut": "46X.575",
      "toneIn": "",
      "location": {
        "latitude": 0,
        "longitude": 0
      },
      "radius": "",
      "haat": "0",
      "status": "Online"
    },
    {
      "id": "63",
      "name": "New Orleans Open Repeater",
      "frequencyOut": "46X.575",
      "toneIn": "",
      "location": {
        "latitude": 0,
        "longitude": 0
      },
      "radius": "",
      "haat": "0",
      "status": "Online"
    },
    {
      "id": "64",
      "name": "Northern Passaic County",
      "frequencyOut": "46X.700",
      "toneIn": "",
      "location": {
        "latitude": 41.05554,
        "longitude": -74.25179
      },
      "radius": "",
      "haat": "1050",
      "status": "Offline"
    },
    {
      "id": "66",
      "name": "Alliance Radio System",
      "frequencyOut": "46X.700",
      "toneIn": "",
      "location": {
        "latitude": 42.0563,
        "longitude": -71.33028
      },
      "radius": "40",
      "haat": "0",
      "status": "Online"
    },
    {
      "id": "70",
      "name": "Ted Freitas WQBQ405",
      "frequencyOut": "46X.725",
      "toneIn": "",
      "location": {
        "latitude": 0,
        "longitude": 0
      },
      "radius": "",
      "haat": "0",
      "status": "Online"
    },
    {
      "id": "71",
      "name": "Homestead 675",
      "frequencyOut": "46X.675",
      "toneIn": "",
      "location": {
        "latitude": 25.55235,
        "longitude": -80.47554
      },
      "radius": "10",
      "haat": "0",
      "status": "Online"
    },
    {
      "id": "72",
      "name": "MassNet \"Com 1\"",
      "frequencyOut": "46X.600",
      "toneIn": "",
      "location": {
        "latitude": 0,
        "longitude": 0
      },
      "radius": "",
      "haat": "0",
      "status": "Online"
    },
    {
      "id": "73",
      "name": "MassNet \"Com 1B\"",
      "frequencyOut": "46X.600",
      "toneIn": "",
      "location": {
        "latitude": 0,
        "longitude": 0
      },
      "radius": "",
      "haat": "0",
      "status": "Online"
    },
    {
      "id": "74",
      "name": "MassNet Com 2",
      "frequencyOut": "46X.550",
      "toneIn": "",
      "location": {
        "latitude": 0,
        "longitude": 0
      },
      "radius": "",
      "haat": "0",
      "status": "Online"
    },
    {
      "id": "75",
      "name": "MassNet Com 3",
      "frequencyOut": "46X.600",
      "toneIn": "",
      "location": {
        "latitude": 0,
        "longitude": 0
      },
      "radius": "",
      "haat": "0",
      "status": "Online"
    },
    {
      "id": "76",
      "name": "MassNet Com 3B",
      "frequencyOut": "46X.600",
      "toneIn": "",
      "location": {
        "latitude": 0,
        "longitude": 0
      },
      "radius": "",
      "haat": "0",
      "status": "Online"
    },
    {
      "id": "77",
      "name": "MassNet Com 4",
      "frequencyOut": "46X.550",
      "toneIn": "",
      "location": {
        "latitude": 0,
        "longitude": 0
      },
      "radius": "",
      "haat": "0",
      "status": "Online"
    },
    {
      "id": "81",
      "name": "New Bern",
      "frequencyOut": "46X.700",
      "toneIn": "",
      "location": {
        "latitude": 0,
        "longitude": 0
      },
      "radius": "",
      "haat": "0",
      "status": "Online"
    },
    {
      "id": "90",
      "name": "Lycoming County GMRS",
      "frequencyOut": "46X.725",
      "toneIn": "",
      "location": {
        "latitude": 0,
        "longitude": 0
      },
      "radius": "",
      "haat": "0",
      "status": "Online"
    },
    {
      "id": "94",
      "name": "Gummers East",
      "frequencyOut": "46X.650",
      "toneIn": "",
      "location": {
        "latitude": 38.61517,
        "longitude": -76.51252
      },
      "radius": "",
      "haat": "0",
      "status": "Online"
    },
    {
      "id": "95",
      "name": "WQEN762",
      "frequencyOut": "46X.575",
      "toneIn": "",
      "location": {
        "latitude": 0,
        "longitude": 0
      },
      "radius": "",
      "haat": "0",
      "status": "Online"
    },
    {
      "id": "96",
      "name": "Quincy 550",
      "frequencyOut": "46X.550",
      "toneIn": "",
      "location": {
        "latitude": 39.9356,
        "longitude": -91.39583
      },
      "radius": "",
      "haat": "200",
      "status": "Online"
    },
    {
      "id": "97",
      "name": "Addicks-Howell",
      "frequencyOut": "46X.700",
      "toneIn": "",
      "location": {
        "latitude": 29.78218,
        "longitude": -95.63933
      },
      "radius": "5",
      "haat": "0",
      "status": "Online"
    },
    {
      "id": "107",
      "name": "Irons 550",
      "frequencyOut": "46X.550",
      "toneIn": "",
      "location": {
        "latitude": 39.62683,
        "longitude": -78.70884
      },
      "radius": "",
      "haat": "0",
      "status": "Online"
    },
    {
      "id": "108",
      "name": "Milton 575",
      "frequencyOut": "46X.575",
      "toneIn": "",
      "location": {
        "latitude": 0,
        "longitude": 0
      },
      "radius": "",
      "haat": "0",
      "status": "Online"
    },
    {
      "id": "111",
      "name": "shawnee 700",
      "frequencyOut": "46X.700",
      "toneIn": "",
      "location": {
        "latitude": 0,
        "longitude": 0
      },
      "radius": "",
      "haat": "0",
      "status": "Online"
    },
    {
      "id": "112",
      "name": "Q Comm 725",
      "frequencyOut": "46X.725",
      "toneIn": "",
      "location": {
        "latitude": 35.2169,
        "longitude": -106.45253
      },
      "radius": "80",
      "haat": "0",
      "status": "Online"
    },
    {
      "id": "114",
      "name": "KTI Goodland",
      "frequencyOut": "46X.700",
      "toneIn": "",
      "location": {
        "latitude": 39.31943,
        "longitude": -101.73134
      },
      "radius": "",
      "haat": "450",
      "status": "Online"
    },
    {
      "id": "115",
      "name": "Madisonville",
      "frequencyOut": "46X.550",
      "toneIn": "",
      "location": {
        "latitude": 0,
        "longitude": 0
      },
      "radius": "",
      "haat": "0",
      "status": "Online"
    },
    {
      "id": "116",
      "name": "Buttonsberry",
      "frequencyOut": "46X.650",
      "toneIn": "",
      "location": {
        "latitude": 0,
        "longitude": 0
      },
      "radius": "",
      "haat": "0",
      "status": "Online"
    },
    {
      "id": "117",
      "name": "York County REACT",
      "frequencyOut": "46X.675",
      "toneIn": "",
      "location": {
        "latitude": 39.78773,
        "longitude": -76.67514
      },
      "radius": "",
      "haat": "100",
      "status": "Online"
    },
    {
      "id": "125",
      "name": "Rattlesnake",
      "frequencyOut": "46X.575",
      "toneIn": "",
      "location": {
        "latitude": 34.48491,
        "longitude": -117.64418
      },
      "radius": "15",
      "haat": "0",
      "status": "Online"
    },
    {
      "id": "126",
      "name": "Santiago Peak",
      "frequencyOut": "46X.675",
      "toneIn": "",
      "location": {
        "latitude": 33.70749,
        "longitude": -117.53345
      },
      "radius": "50",
      "haat": "0",
      "status": "Online"
    },
    {
      "id": "135",
      "name": "ATL-575 Zebulon",
      "frequencyOut": "46X.575",
      "toneIn": "",
      "location": {
        "latitude": 32.98394,
        "longitude": -84.36243
      },
      "radius": "45",
      "haat": "0",
      "status": "Online"
    },
    {
      "id": "137",
      "name": "Plum Point",
      "frequencyOut": "46X.550",
      "toneIn": "",
      "location": {
        "latitude": 0,
        "longitude": 0
      },
      "radius": "",
      "haat": "0",
      "status": "Online"
    },
    {
      "id": "147",
      "name": "RICHMOND METRO RADIO",
      "frequencyOut": "46X.675",
      "toneIn": "",
      "location": {
        "latitude": 37.24582,
        "longitude": -77.40807
      },
      "radius": "35",
      "haat": "0",
      "status": "Offline"
    },
    {
      "id": "172",
      "name": "ATL-550-Mica",
      "frequencyOut": "46X.550",
      "toneIn": "",
      "location": {
        "latitude": 34.38851,
        "longitude": -84.27127
      },
      "radius": "35",
      "haat": "0",
      "status": "Online"
    },
    {
      "id": "180",
      "name": "Bellevue 550",
      "frequencyOut": "46X.550",
      "toneIn": "",
      "location": {
        "latitude": 41.13646,
        "longitude": -95.89301
      },
      "radius": "5",
      "haat": "0",
      "status": "Offline"
    },
    {
      "id": "181",
      "name": "MPV Repeater",
      "frequencyOut": "46X.700",
      "toneIn": "",
      "location": {
        "latitude": 30.83642,
        "longitude": -83.98049
      },
      "radius": "10",
      "haat": "0",
      "status": "Online"
    },
    {
      "id": "186",
      "name": "RI East",
      "frequencyOut": "46X.700",
      "toneIn": "",
      "location": {
        "latitude": 41.82401,
        "longitude": -71.41348
      },
      "radius": "",
      "haat": "0",
      "status": "Online"
    },
    {
      "id": "187",
      "name": "RI South",
      "frequencyOut": "46X.700",
      "toneIn": "",
      "location": {
        "latitude": 41.49015,
        "longitude": -71.31307
      },
      "radius": "",
      "haat": "0",
      "status": "Online"
    },
    {
      "id": "188",
      "name": "Big Savage 675",
      "frequencyOut": "46X.675",
      "toneIn": "",
      "location": {
        "latitude": 39.67674,
        "longitude": -78.96023
      },
      "radius": "",
      "haat": "100",
      "status": "Online"
    },
    {
      "id": "189",
      "name": "Dan\\'s 600",
      "frequencyOut": "46X.600",
      "toneIn": "",
      "location": {
        "latitude": 39.58143,
        "longitude": -78.89791
      },
      "radius": "",
      "haat": "100",
      "status": "Online"
    },
    {
      "id": "191",
      "name": "Little Savage 700",
      "frequencyOut": "46X.700",
      "toneIn": "",
      "location": {
        "latitude": 39.68616,
        "longitude": -78.96593
      },
      "radius": "",
      "haat": "0",
      "status": "Online"
    },
    {
      "id": "193",
      "name": "PAWA",
      "frequencyOut": "46X.700",
      "toneIn": "",
      "location": {
        "latitude": 0,
        "longitude": 0
      },
      "radius": "",
      "haat": "0",
      "status": "Online"
    },
    {
      "id": "197",
      "name": "Omaha 600",
      "frequencyOut": "46X.600",
      "toneIn": "",
      "location": {
        "latitude": 41.13768,
        "longitude": -95.88897
      },
      "radius": "",
      "haat": "0",
      "status": "Online"
    },
    {
      "id": "198",
      "name": "RI North",
      "frequencyOut": "46X.675",
      "toneIn": "",
      "location": {
        "latitude": 0,
        "longitude": 0
      },
      "radius": "",
      "haat": "0",
      "status": "Online"
    },
    {
      "id": "201",
      "name": "WQDJ631",
      "frequencyOut": "46X.575",
      "toneIn": "",
      "location": {
        "latitude": 34.44457,
        "longitude": -119.24638
      },
      "radius": "",
      "haat": "0",
      "status": "Online"
    },
    {
      "id": "202",
      "name": "Alley Park 600",
      "frequencyOut": "46X.600",
      "toneIn": "",
      "location": {
        "latitude": 0,
        "longitude": 0
      },
      "radius": "",
      "haat": "0",
      "status": "Online"
    },
    {
      "id": "205",
      "name": "Grants Pass1",
      "frequencyOut": "46X.650",
      "toneIn": "",
      "location": {
        "latitude": 42.44317,
        "longitude": -123.32466
      },
      "radius": "",
      "haat": "50",
      "status": "Online"
    },
    {
      "id": "208",
      "name": "PEKIN 650",
      "frequencyOut": "46X.650",
      "toneIn": "",
      "location": {
        "latitude": 40.56118,
        "longitude": -89.61588
      },
      "radius": "30",
      "haat": "0",
      "status": "Online"
    },
    {
      "id": "243",
      "name": "BARN-R1",
      "frequencyOut": "46X.550",
      "toneIn": "",
      "location": {
        "latitude": 37.11329,
        "longitude": -121.83595
      },
      "radius": "85",
      "haat": "0",
      "status": "Online"
    },
    {
      "id": "245",
      "name": "Glen Burnie AACO #1",
      "frequencyOut": "46X.600",
      "toneIn": "",
      "location": {
        "latitude": 39.16179,
        "longitude": -76.62185
      },
      "radius": "10",
      "haat": "0",
      "status": "Online"
    },
    {
      "id": "247",
      "name": "ATL-700 Jersey",
      "frequencyOut": "46X.700",
      "toneIn": "",
      "location": {
        "latitude": 33.73291,
        "longitude": -83.74565
      },
      "radius": "30",
      "haat": "0",
      "status": "Online"
    },
    {
      "id": "248",
      "name": "Carrollton 550",
      "frequencyOut": "46X.550",
      "toneIn": "",
      "location": {
        "latitude": 32.99563,
        "longitude": -96.87718
      },
      "radius": "",
      "haat": "0",
      "status": "Online"
    },
    {
      "id": "251",
      "name": "Aurora 575",
      "frequencyOut": "46X.575",
      "toneIn": "",
      "location": {
        "latitude": 41.73388,
        "longitude": -88.25171
      },
      "radius": "",
      "haat": "50",
      "status": "Online"
    },
    {
      "id": "252",
      "name": "Oswego 725",
      "frequencyOut": "46X.725",
      "toneIn": "",
      "location": {
        "latitude": 41.66612,
        "longitude": -88.33325
      },
      "radius": "",
      "haat": "50",
      "status": "Online"
    },
    {
      "id": "256",
      "name": "WESTMINSTER -- GREEN 2",
      "frequencyOut": "46X.675",
      "toneIn": "",
      "location": {
        "latitude": 33.75904,
        "longitude": -118.01587
      },
      "radius": "",
      "haat": "0",
      "status": "Offline"
    },
    {
      "id": "269",
      "name": "Lancaster 725",
      "frequencyOut": "46X.725",
      "toneIn": "",
      "location": {
        "latitude": 42.92978,
        "longitude": -78.61756
      },
      "radius": "10",
      "haat": "0",
      "status": "Offline"
    },
    {
      "id": "277",
      "name": "West Allis Metro",
      "frequencyOut": "46X.725",
      "toneIn": "",
      "location": {
        "latitude": 43.00327,
        "longitude": -88.01216
      },
      "radius": "30",
      "haat": "0",
      "status": "Online"
    },
    {
      "id": "279",
      "name": "Lincoln Community Repeater",
      "frequencyOut": "46X.625",
      "toneIn": "",
      "location": {
        "latitude": 41.91978,
        "longitude": -71.47636
      },
      "radius": "5",
      "haat": "0",
      "status": "Online"
    },
    {
      "id": "282",
      "name": "York County 725",
      "frequencyOut": "46X.725",
      "toneIn": "",
      "location": {
        "latitude": 35.01144,
        "longitude": -81.2178
      },
      "radius": "15",
      "haat": "0",
      "status": "Online"
    },
    {
      "id": "284",
      "name": "Springville 675",
      "frequencyOut": "46X.675",
      "toneIn": "",
      "location": {
        "latitude": 42.5085,
        "longitude": -78.66575
      },
      "radius": "10",
      "haat": "0",
      "status": "Online"
    },
    {
      "id": "289",
      "name": "Horse Rock 725",
      "frequencyOut": "46X.725",
      "toneIn": "",
      "location": {
        "latitude": 39.48032,
        "longitude": -79.02735
      },
      "radius": "",
      "haat": "100",
      "status": "Online"
    },
    {
      "id": "290",
      "name": "550 Franklin NC",
      "frequencyOut": "46X.550",
      "toneIn": "",
      "location": {
        "latitude": 35.32815,
        "longitude": -83.33653
      },
      "radius": "",
      "haat": "0",
      "status": "Online"
    },
    {
      "id": "291",
      "name": "550 Venice Fla",
      "frequencyOut": "46X.550",
      "toneIn": "",
      "location": {
        "latitude": 27.09945,
        "longitude": -82.45001
      },
      "radius": "",
      "haat": "0",
      "status": "Online"
    },
    {
      "id": "292",
      "name": "Battle Mountain- 575",
      "frequencyOut": "46X.575",
      "toneIn": "",
      "location": {
        "latitude": 40.55852,
        "longitude": -116.69811
      },
      "radius": "60",
      "haat": "0",
      "status": "Online"
    },
    {
      "id": "296",
      "name": "Nassau County REACT",
      "frequencyOut": "46X.700",
      "toneIn": "",
      "location": {
        "latitude": 40.72449,
        "longitude": -73.57733
      },
      "radius": "",
      "haat": "0",
      "status": "Online"
    },
    {
      "id": "297",
      "name": "Emergency Medical REACT Of NYC",
      "frequencyOut": "46X.700",
      "toneIn": "",
      "location": {
        "latitude": 40.75069,
        "longitude": -73.71506
      },
      "radius": "",
      "haat": "0",
      "status": "Online"
    },
    {
      "id": "302",
      "name": "Brevard 700",
      "frequencyOut": "46X.700",
      "toneIn": "",
      "location": {
        "latitude": 28.15238,
        "longitude": -80.64609
      },
      "radius": "10",
      "haat": "0",
      "status": "Online"
    },
    {
      "id": "309",
      "name": "Lancaster 675",
      "frequencyOut": "46X.675",
      "toneIn": "",
      "location": {
        "latitude": 42.86376,
        "longitude": -78.68425
      },
      "radius": "10",
      "haat": "0",
      "status": "Offline"
    },
    {
      "id": "313",
      "name": "Aston 550",
      "frequencyOut": "46X.550",
      "toneIn": "",
      "location": {
        "latitude": 39.86482,
        "longitude": -75.41041
      },
      "radius": "",
      "haat": "0",
      "status": "Online"
    },
    {
      "id": "315",
      "name": "Bluff Country Repeater",
      "frequencyOut": "46X.550",
      "toneIn": "",
      "location": {
        "latitude": 43.73235,
        "longitude": -91.93097
      },
      "radius": "",
      "haat": "0",
      "status": "Online"
    },
    {
      "id": "317",
      "name": "EMA 725",
      "frequencyOut": "46X.725",
      "toneIn": "",
      "location": {
        "latitude": 42.23767,
        "longitude": -71.03416
      },
      "radius": "",
      "haat": "0",
      "status": "Online"
    },
    {
      "id": "318",
      "name": "Timuqua 600",
      "frequencyOut": "46X.600",
      "toneIn": "",
      "location": {
        "latitude": 29.90398,
        "longitude": -82.68336
      },
      "radius": "20",
      "haat": "0",
      "status": "Online"
    },
    {
      "id": "322",
      "name": "ATL-625 Pine Log Mtn.,",
      "frequencyOut": "46X.625",
      "toneIn": "",
      "location": {
        "latitude": 34.32276,
        "longitude": -84.6362
      },
      "radius": "100",
      "haat": "0",
      "status": "Online"
    },
    {
      "id": "325",
      "name": "Hamburg 675",
      "frequencyOut": "46X.675",
      "toneIn": "",
      "location": {
        "latitude": 42.71606,
        "longitude": -78.83211
      },
      "radius": "25",
      "haat": "0",
      "status": "Online"
    },
    {
      "id": "328",
      "name": "Victory 650",
      "frequencyOut": "46X.650",
      "toneIn": "",
      "location": {
        "latitude": 37.2662,
        "longitude": -84.09081
      },
      "radius": "",
      "haat": "50",
      "status": "Online"
    },
    {
      "id": "329",
      "name": "Johnson City 675",
      "frequencyOut": "46X.650",
      "toneIn": "",
      "location": {
        "latitude": 36.3555,
        "longitude": -82.34734
      },
      "radius": "30",
      "haat": "0",
      "status": "Online"
    },
    {
      "id": "332",
      "name": "Flagler County Assist REACT TAC 8",
      "frequencyOut": "46X.675",
      "toneIn": "",
      "location": {
        "latitude": 29.54718,
        "longitude": -81.21918
      },
      "radius": "15",
      "haat": "0",
      "status": "Online"
    },
    {
      "id": "333",
      "name": "Flagler County Assist REACT TAC 9",
      "frequencyOut": "46X.550",
      "toneIn": "",
      "location": {
        "latitude": 29.45574,
        "longitude": -81.25626
      },
      "radius": "15",
      "haat": "0",
      "status": "Online"
    },
    {
      "id": "334",
      "name": "Flagler County Assist REACT TAC 10",
      "frequencyOut": "46X.600",
      "toneIn": "",
      "location": {
        "latitude": 29.50774,
        "longitude": -81.30913
      },
      "radius": "25",
      "haat": "0",
      "status": "Online"
    },
    {
      "id": "335",
      "name": "Polk County 725",
      "frequencyOut": "46X.725",
      "toneIn": "",
      "location": {
        "latitude": 27.88005,
        "longitude": -81.81587
      },
      "radius": "",
      "haat": "500",
      "status": "Online"
    },
    {
      "id": "336",
      "name": "Portsmouth Community Repeater",
      "frequencyOut": "46X.550",
      "toneIn": "",
      "location": {
        "latitude": 41.59259,
        "longitude": -71.25509
      },
      "radius": "5",
      "haat": "0",
      "status": "Online"
    },
    {
      "id": "341",
      "name": "Wachusett Area Radio Net [warn]",
      "frequencyOut": "46X.675",
      "toneIn": "",
      "location": {
        "latitude": 42.40866,
        "longitude": -71.69111
      },
      "radius": "",
      "haat": "0",
      "status": "Online"
    },
    {
      "id": "342",
      "name": "SADDLE PEAK",
      "frequencyOut": "46X.600",
      "toneIn": "",
      "location": {
        "latitude": 34.08224,
        "longitude": -118.67844
      },
      "radius": "",
      "haat": "0",
      "status": "Online"
    },
    {
      "id": "345",
      "name": "Mount Hope Repeater",
      "frequencyOut": "46X.575",
      "toneIn": "",
      "location": {
        "latitude": 43.4182,
        "longitude": -70.80049
      },
      "radius": "50",
      "haat": "0",
      "status": "Offline"
    },
    {
      "id": "350",
      "name": "Rock Hill 625",
      "frequencyOut": "46X.625",
      "toneIn": "",
      "location": {
        "latitude": 35.00627,
        "longitude": -81.10378
      },
      "radius": "",
      "haat": "350",
      "status": "Online"
    },
    {
      "id": "351",
      "name": "WQGQ650",
      "frequencyOut": "46X.550",
      "toneIn": "",
      "location": {
        "latitude": 33.84725,
        "longitude": -118.125
      },
      "radius": "",
      "haat": "0",
      "status": "Offline"
    },
    {
      "id": "352",
      "name": "Harvard",
      "frequencyOut": "46X.625",
      "toneIn": "",
      "location": {
        "latitude": 34.21691,
        "longitude": -118.0584
      },
      "radius": "",
      "haat": "4000",
      "status": "Online"
    },
    {
      "id": "353",
      "name": "Wilson",
      "frequencyOut": "46X.600",
      "toneIn": "",
      "location": {
        "latitude": 34.22667,
        "longitude": -118.06572
      },
      "radius": "",
      "haat": "4000",
      "status": "Online"
    },
    {
      "id": "354",
      "name": "Fires Creek 575",
      "frequencyOut": "46X.575",
      "toneIn": "",
      "location": {
        "latitude": 35.08292,
        "longitude": -83.85596
      },
      "radius": "10",
      "haat": "0",
      "status": "Online"
    },
    {
      "id": "358",
      "name": "GMRS 550 BETH",
      "frequencyOut": "46X.550",
      "toneIn": "",
      "location": {
        "latitude": 30.90767,
        "longitude": -85.73404
      },
      "radius": "30",
      "haat": "0",
      "status": "Online"
    },
    {
      "id": "359",
      "name": "Joliet East (WQIV271)",
      "frequencyOut": "46X.550",
      "toneIn": "",
      "location": {
        "latitude": 41.49967,
        "longitude": -88.06228
      },
      "radius": "",
      "haat": "200",
      "status": "Online"
    },
    {
      "id": "360",
      "name": "SPOT",
      "frequencyOut": "46X.700",
      "toneIn": "",
      "location": {
        "latitude": 42.43065,
        "longitude": -71.29977
      },
      "radius": "",
      "haat": "0",
      "status": "Online"
    },
    {
      "id": "362",
      "name": "VSCP - OPS 522",
      "frequencyOut": "46X.675",
      "toneIn": "",
      "location": {
        "latitude": 46.87146,
        "longitude": -98.67783
      },
      "radius": "25",
      "haat": "0",
      "status": "Online"
    },
    {
      "id": "363",
      "name": "EMA 650",
      "frequencyOut": "46X.650",
      "toneIn": "",
      "location": {
        "latitude": 42.0067,
        "longitude": -71.04515
      },
      "radius": "40",
      "haat": "0",
      "status": "Online"
    },
    {
      "id": "364",
      "name": "Water Plant 650",
      "frequencyOut": "46X.650",
      "toneIn": "",
      "location": {
        "latitude": 39.67142,
        "longitude": -78.94018
      },
      "radius": "",
      "haat": "0",
      "status": "Online"
    },
    {
      "id": "368",
      "name": "WQJK414",
      "frequencyOut": "46X.600",
      "toneIn": "",
      "location": {
        "latitude": 43.05467,
        "longitude": -74.768
      },
      "radius": "",
      "haat": "50",
      "status": "Offline"
    },
    {
      "id": "372",
      "name": "Boone 87",
      "frequencyOut": "46X.625",
      "toneIn": "",
      "location": {
        "latitude": 38.99362,
        "longitude": -84.62757
      },
      "radius": "",
      "haat": "0",
      "status": "Online"
    },
    {
      "id": "375",
      "name": "Storm 675 Repeater",
      "frequencyOut": "46X.675",
      "toneIn": "",
      "location": {
        "latitude": 40.48116,
        "longitude": -105.33056
      },
      "radius": "",
      "haat": "0",
      "status": "Online"
    },
    {
      "id": "380",
      "name": "Roy",
      "frequencyOut": "46X.600",
      "toneIn": "",
      "location": {
        "latitude": 41.0875,
        "longitude": -112.06115
      },
      "radius": "",
      "haat": "0",
      "status": "Online"
    },
    {
      "id": "381",
      "name": "Bridgewater Skywarn",
      "frequencyOut": "46X.725",
      "toneIn": "",
      "location": {
        "latitude": 41.24471,
        "longitude": -94.66886
      },
      "radius": "",
      "haat": "0",
      "status": "Online"
    },
    {
      "id": "382",
      "name": "Prescott",
      "frequencyOut": "46X.675",
      "toneIn": "",
      "location": {
        "latitude": 41.02434,
        "longitude": -94.60874
      },
      "radius": "",
      "haat": "0",
      "status": "Online"
    },
    {
      "id": "383",
      "name": "MVRC Vaca",
      "frequencyOut": "46X.675",
      "toneIn": "",
      "location": {
        "latitude": 38.39119,
        "longitude": -122.06978
      },
      "radius": "70",
      "haat": "0",
      "status": "Offline"
    },
    {
      "id": "385",
      "name": "ATL-550 Madison",
      "frequencyOut": "46X.550",
      "toneIn": "",
      "location": {
        "latitude": 33.68057,
        "longitude": -83.51802
      },
      "radius": "30",
      "haat": "0",
      "status": "Online"
    },
    {
      "id": "388",
      "name": "Skywarn Eastern Polk",
      "frequencyOut": "46X.675",
      "toneIn": "",
      "location": {
        "latitude": 41.57873,
        "longitude": -93.46035
      },
      "radius": "",
      "haat": "0",
      "status": "Online"
    },
    {
      "id": "389",
      "name": "Falmouth GMRS",
      "frequencyOut": "46X.675",
      "toneIn": "",
      "location": {
        "latitude": 41.63084,
        "longitude": -70.55557
      },
      "radius": "15",
      "haat": "0",
      "status": "Online"
    },
    {
      "id": "393",
      "name": "CVk9",
      "frequencyOut": "46X.550",
      "toneIn": "",
      "location": {
        "latitude": 37.0634,
        "longitude": -119.42482
      },
      "radius": "65",
      "haat": "0",
      "status": "Online"
    },
    {
      "id": "394",
      "name": "WQFZ377",
      "frequencyOut": "46X.550",
      "toneIn": "",
      "location": {
        "latitude": 41.59491,
        "longitude": -72.67387
      },
      "radius": "5",
      "haat": "0",
      "status": "Offline"
    },
    {
      "id": "395",
      "name": "Evanston 725",
      "frequencyOut": "46X.725",
      "toneIn": "",
      "location": {
        "latitude": 42.04969,
        "longitude": -87.68531
      },
      "radius": "15",
      "haat": "0",
      "status": "Online"
    },
    {
      "id": "397",
      "name": "700 Walker",
      "frequencyOut": "46X.700",
      "toneIn": "",
      "location": {
        "latitude": 39.15243,
        "longitude": -122.50374
      },
      "radius": "",
      "haat": "3000",
      "status": "Online"
    },
    {
      "id": "398",
      "name": "700 Mt. Vaca",
      "frequencyOut": "46X.700",
      "toneIn": "",
      "location": {
        "latitude": 38.41486,
        "longitude": -122.10686
      },
      "radius": "",
      "haat": "2800",
      "status": "Online"
    },
    {
      "id": "403",
      "name": "Wenatchee heights 550",
      "frequencyOut": "46X.550",
      "toneIn": "",
      "location": {
        "latitude": 47.34981,
        "longitude": -120.30591
      },
      "radius": "",
      "haat": "250",
      "status": "Online"
    },
    {
      "id": "407",
      "name": "Wills Point 725",
      "frequencyOut": "46X.725",
      "toneIn": "",
      "location": {
        "latitude": 32.69602,
        "longitude": -95.96695
      },
      "radius": "50",
      "haat": "0",
      "status": "Online"
    },
    {
      "id": "408",
      "name": "Gummers",
      "frequencyOut": "46X.650",
      "toneIn": "",
      "location": {
        "latitude": 37.82133,
        "longitude": -121.78178
      },
      "radius": "",
      "haat": "2250",
      "status": "Online"
    },
    {
      "id": "410",
      "name": "Gymrash",
      "frequencyOut": "46X.650",
      "toneIn": "",
      "location": {
        "latitude": 38.17782,
        "longitude": -120.85828
      },
      "radius": "",
      "haat": "800",
      "status": "Online"
    },
    {
      "id": "414",
      "name": "ATL-675 Sassafras Mtn.",
      "frequencyOut": "46X.675",
      "toneIn": "",
      "location": {
        "latitude": 34.52223,
        "longitude": -84.33845
      },
      "radius": "100",
      "haat": "0",
      "status": "Online"
    },
    {
      "id": "415",
      "name": "Gr1225 #1",
      "frequencyOut": "46X.550",
      "toneIn": "",
      "location": {
        "latitude": 35.54148,
        "longitude": -79.758
      },
      "radius": "",
      "haat": "0",
      "status": "Online"
    },
    {
      "id": "419",
      "name": "Sandia 675",
      "frequencyOut": "46X.675",
      "toneIn": "",
      "location": {
        "latitude": 35.21685,
        "longitude": -106.45238
      },
      "radius": "80",
      "haat": "0",
      "status": "Online"
    },
    {
      "id": "431",
      "name": "GA-725 Powelton",
      "frequencyOut": "46X.725",
      "toneIn": "",
      "location": {
        "latitude": 33.4317,
        "longitude": -82.86928
      },
      "radius": "40",
      "haat": "0",
      "status": "Online"
    },
    {
      "id": "442",
      "name": "Napa County",
      "frequencyOut": "46X.575",
      "toneIn": "",
      "location": {
        "latitude": 38.29886,
        "longitude": -122.28519
      },
      "radius": "",
      "haat": "2000",
      "status": "Online"
    },
    {
      "id": "449",
      "name": "BARF",
      "frequencyOut": "46X.625",
      "toneIn": "",
      "location": {
        "latitude": 37.16015,
        "longitude": -121.90777
      },
      "radius": "",
      "haat": "2500",
      "status": "Online"
    },
    {
      "id": "450",
      "name": "Ridgeville",
      "frequencyOut": "46X.725",
      "toneIn": "",
      "location": {
        "latitude": 43.89631,
        "longitude": -90.5821
      },
      "radius": "25",
      "haat": "0",
      "status": "Online"
    },
    {
      "id": "454",
      "name": "Kool408",
      "frequencyOut": "46X.600",
      "toneIn": "",
      "location": {
        "latitude": 40.16753,
        "longitude": -80.24648
      },
      "radius": "25",
      "haat": "0",
      "status": "Online"
    },
    {
      "id": "455",
      "name": "OPG 7",
      "frequencyOut": "46X.700",
      "toneIn": "",
      "location": {
        "latitude": 38.11909,
        "longitude": -122.5833
      },
      "radius": "35",
      "haat": "0",
      "status": "Online"
    },
    {
      "id": "470",
      "name": "Providence Community Repeater",
      "frequencyOut": "46X.725",
      "toneIn": "",
      "location": {
        "latitude": 41.81252,
        "longitude": -71.40976
      },
      "radius": "5",
      "haat": "0",
      "status": "Online"
    },
    {
      "id": "471",
      "name": "LA285",
      "frequencyOut": "46X.550",
      "toneIn": "",
      "location": {
        "latitude": 35.89128,
        "longitude": -106.27487
      },
      "radius": "20",
      "haat": "0",
      "status": "Online"
    },
    {
      "id": "474",
      "name": "VERDUGO",
      "frequencyOut": "46X.700",
      "toneIn": "",
      "location": {
        "latitude": 34.19136,
        "longitude": -118.25409
      },
      "radius": "",
      "haat": "0",
      "status": "Online"
    },
    {
      "id": "475",
      "name": "Nescopeck GMRS",
      "frequencyOut": "46X.575",
      "toneIn": "",
      "location": {
        "latitude": 41.04418,
        "longitude": -76.19426
      },
      "radius": "5",
      "haat": "0",
      "status": "Online"
    },
    {
      "id": "483",
      "name": "Jacksonville 675",
      "frequencyOut": "46X.675",
      "toneIn": "",
      "location": {
        "latitude": 30.33138,
        "longitude": -81.6558
      },
      "radius": "",
      "haat": "300",
      "status": "Online"
    },
    {
      "id": "484",
      "name": "Abilene GMRS",
      "frequencyOut": "46X.725",
      "toneIn": "",
      "location": {
        "latitude": 32.44025,
        "longitude": -99.73457
      },
      "radius": "60",
      "haat": "0",
      "status": "Online"
    },
    {
      "id": "486",
      "name": "Kool408(b)",
      "frequencyOut": "46X.700",
      "toneIn": "",
      "location": {
        "latitude": 40.16753,
        "longitude": -80.24648
      },
      "radius": "",
      "haat": "0",
      "status": "Online"
    },
    {
      "id": "488",
      "name": "South Jax 575",
      "frequencyOut": "46X.575",
      "toneIn": "",
      "location": {
        "latitude": 30.10444,
        "longitude": -81.46946
      },
      "radius": "",
      "haat": "350",
      "status": "Online"
    },
    {
      "id": "490",
      "name": "Portable 625 ",
      "frequencyOut": "46X.625",
      "toneIn": "",
      "location": {
        "latitude": 28.03119,
        "longitude": -81.81973
      },
      "radius": "5",
      "haat": "0",
      "status": "Offline"
    },
    {
      "id": "491",
      "name": "Crescenta",
      "frequencyOut": "46X.650",
      "toneIn": "",
      "location": {
        "latitude": 34.24416,
        "longitude": -118.25958
      },
      "radius": "",
      "haat": "0",
      "status": "Online"
    },
    {
      "id": "495",
      "name": "Seattle #1 Repeater",
      "frequencyOut": "46X.550",
      "toneIn": "",
      "location": {
        "latitude": 47.54508,
        "longitude": -122.37971
      },
      "radius": "20",
      "haat": "0",
      "status": "Online"
    },
    {
      "id": "496",
      "name": "CCC WQEY627",
      "frequencyOut": "46X.675",
      "toneIn": "",
      "location": {
        "latitude": 38.55998,
        "longitude": -121.34022
      },
      "radius": "5",
      "haat": "0",
      "status": "Online"
    },
    {
      "id": "497",
      "name": "Victor 1",
      "frequencyOut": "46X.650",
      "toneIn": "",
      "location": {
        "latitude": 34.51062,
        "longitude": -117.32364
      },
      "radius": "50",
      "haat": "0",
      "status": "Online"
    },
    {
      "id": "502",
      "name": "Sin City 700 North",
      "frequencyOut": "46X.700",
      "toneIn": "",
      "location": {
        "latitude": 36.26742,
        "longitude": -115.15135
      },
      "radius": "30",
      "haat": "0",
      "status": "Offline"
    },
    {
      "id": "503",
      "name": "Mt. Veeder",
      "frequencyOut": "46X.575",
      "toneIn": "",
      "location": {
        "latitude": 38.3475,
        "longitude": -122.37246
      },
      "radius": "50",
      "haat": "0",
      "status": "Online"
    },
    {
      "id": "506",
      "name": "Council Bluffs1",
      "frequencyOut": "46X.550",
      "toneIn": "",
      "location": {
        "latitude": 41.25776,
        "longitude": -95.85125
      },
      "radius": "",
      "haat": "50",
      "status": "Online"
    },
    {
      "id": "508",
      "name": "Northampton 725",
      "frequencyOut": "46X.725",
      "toneIn": "",
      "location": {
        "latitude": 40.68363,
        "longitude": -75.49108
      },
      "radius": "15",
      "haat": "0",
      "status": "Online"
    },
    {
      "id": "519",
      "name": "Wqil528",
      "frequencyOut": "46X.725",
      "toneIn": "",
      "location": {
        "latitude": 40.27995,
        "longitude": -75.64157
      },
      "radius": "",
      "haat": "50",
      "status": "Online"
    },
    {
      "id": "521",
      "name": "MWC-550",
      "frequencyOut": "46X.550",
      "toneIn": "",
      "location": {
        "latitude": 35.48283,
        "longitude": -97.36385
      },
      "radius": "20",
      "haat": "0",
      "status": "Online"
    },
    {
      "id": "528",
      "name": "Spring Base",
      "frequencyOut": "46X.550",
      "toneIn": "",
      "location": {
        "latitude": 30.08454,
        "longitude": -95.41928
      },
      "radius": "20",
      "haat": "0",
      "status": "Online"
    },
    {
      "id": "529",
      "name": "Grundy 700",
      "frequencyOut": "46X.700",
      "toneIn": "",
      "location": {
        "latitude": 41.28581,
        "longitude": -88.43054
      },
      "radius": "",
      "haat": "500",
      "status": "Online"
    },
    {
      "id": "537",
      "name": "LEARN South",
      "frequencyOut": "46X.700",
      "toneIn": "",
      "location": {
        "latitude": 39.86314,
        "longitude": -75.37076
      },
      "radius": "",
      "haat": "100",
      "status": "Online"
    },
    {
      "id": "538",
      "name": "GSHARP725",
      "frequencyOut": "46X.725",
      "toneIn": "",
      "location": {
        "latitude": 40.19677,
        "longitude": -105.12757
      },
      "radius": "15",
      "haat": "0",
      "status": "Online"
    },
    {
      "id": "539",
      "name": "WIN 600 A",
      "frequencyOut": "46X.600",
      "toneIn": "",
      "location": {
        "latitude": 44.95976,
        "longitude": -91.58787
      },
      "radius": "",
      "haat": "150",
      "status": "Online"
    },
    {
      "id": "540",
      "name": "KM 650",
      "frequencyOut": "46X.650",
      "toneIn": "",
      "location": {
        "latitude": 34.64467,
        "longitude": -86.3636
      },
      "radius": "",
      "haat": "750",
      "status": "Online"
    },
    {
      "id": "541",
      "name": "ATL-700-Statham",
      "frequencyOut": "46X.700",
      "toneIn": "",
      "location": {
        "latitude": 33.98834,
        "longitude": -83.59007
      },
      "radius": "45",
      "haat": "0",
      "status": "Online"
    },
    {
      "id": "542",
      "name": "MidAmerica",
      "frequencyOut": "46X.700",
      "toneIn": "",
      "location": {
        "latitude": 38.49374,
        "longitude": -89.7883
      },
      "radius": "25",
      "haat": "0",
      "status": "Online"
    },
    {
      "id": "556",
      "name": "Midd Gmrs",
      "frequencyOut": "46X.650",
      "toneIn": "",
      "location": {
        "latitude": 40.38474,
        "longitude": -74.133
      },
      "radius": "",
      "haat": "400",
      "status": "Offline"
    },
    {
      "id": "557",
      "name": "METRO-REACT",
      "frequencyOut": "46X.600",
      "toneIn": "",
      "location": {
        "latitude": 38.06217,
        "longitude": -85.8936
      },
      "radius": "",
      "haat": "0",
      "status": "Offline"
    },
    {
      "id": "559",
      "name": "SW Wenatchee Valley 725",
      "frequencyOut": "46X.725",
      "toneIn": "",
      "location": {
        "latitude": 47.40445,
        "longitude": -120.33282
      },
      "radius": "",
      "haat": "50",
      "status": "Offline"
    },
    {
      "id": "560",
      "name": "Box Elder 725",
      "frequencyOut": "46X.725",
      "toneIn": "",
      "location": {
        "latitude": 44.10615,
        "longitude": -103.06804
      },
      "radius": "25",
      "haat": "0",
      "status": "Offline"
    },
    {
      "id": "565",
      "name": "OPG 9",
      "frequencyOut": "46X.700",
      "toneIn": "",
      "location": {
        "latitude": 37.78818,
        "longitude": -122.40169
      },
      "radius": "20",
      "haat": "0",
      "status": "Online"
    },
    {
      "id": "566",
      "name": "Klamath550",
      "frequencyOut": "46X.550",
      "toneIn": "",
      "location": {
        "latitude": 42.21761,
        "longitude": -121.79351
      },
      "radius": "",
      "haat": "100",
      "status": "Online"
    },
    {
      "id": "567",
      "name": "Hobby 725",
      "frequencyOut": "46X.725",
      "toneIn": "",
      "location": {
        "latitude": 29.65707,
        "longitude": -95.25659
      },
      "radius": "",
      "haat": "100",
      "status": "Online"
    },
    {
      "id": "573",
      "name": "NorCal RUG-04",
      "frequencyOut": "46X.625",
      "toneIn": "",
      "location": {
        "latitude": 37.62442,
        "longitude": -122.4138
      },
      "radius": "5",
      "haat": "0",
      "status": "Online"
    },
    {
      "id": "579",
      "name": "Fond Du Lac County REACT",
      "frequencyOut": "46X.575",
      "toneIn": "",
      "location": {
        "latitude": 43.78002,
        "longitude": -88.37746
      },
      "radius": "",
      "haat": "50",
      "status": "Online"
    },
    {
      "id": "591",
      "name": "Christilles725",
      "frequencyOut": "46X.725",
      "toneIn": "",
      "location": {
        "latitude": 29.30999,
        "longitude": -98.81417
      },
      "radius": "",
      "haat": "50",
      "status": "Online"
    },
    {
      "id": "592",
      "name": "GA-650-Lookout Mnt.",
      "frequencyOut": "46X.650",
      "toneIn": "",
      "location": {
        "latitude": 35.00902,
        "longitude": -85.34303
      },
      "radius": "",
      "haat": "100",
      "status": "Online"
    },
    {
      "id": "595",
      "name": "Cedarloo REACT-EOC",
      "frequencyOut": "46X.675",
      "toneIn": "",
      "location": {
        "latitude": 42.504,
        "longitude": -92.314
      },
      "radius": "20",
      "haat": "0",
      "status": "Online"
    },
    {
      "id": "596",
      "name": "Cedarloo REACT  #1",
      "frequencyOut": "46X.625",
      "toneIn": "",
      "location": {
        "latitude": 42.52815,
        "longitude": -92.44555
      },
      "radius": "",
      "haat": "200",
      "status": "Online"
    },
    {
      "id": "603",
      "name": "625 Isabela Community Repeater",
      "frequencyOut": "46X.625",
      "toneIn": "",
      "location": {
        "latitude": 18.47497,
        "longitude": -67.00501
      },
      "radius": "10",
      "haat": "0",
      "status": "Online"
    },
    {
      "id": "607",
      "name": "WEST SIDE",
      "frequencyOut": "46X.725",
      "toneIn": "",
      "location": {
        "latitude": 37.42362,
        "longitude": -122.31564
      },
      "radius": "90",
      "haat": "0",
      "status": "Online"
    },
    {
      "id": "608",
      "name": "CEDAR RIDGE",
      "frequencyOut": "46X.725",
      "toneIn": "",
      "location": {
        "latitude": 38.05002,
        "longitude": -120.32038
      },
      "radius": "90",
      "haat": "0",
      "status": "Online"
    },
    {
      "id": "612",
      "name": "Old Iron Ranch",
      "frequencyOut": "46X.675",
      "toneIn": "",
      "location": {
        "latitude": 42.68931,
        "longitude": -87.99113
      },
      "radius": "20",
      "haat": "0",
      "status": "Online"
    },
    {
      "id": "620",
      "name": "YORKTOWN 725",
      "frequencyOut": "46X.725",
      "toneIn": "",
      "location": {
        "latitude": 37.16469,
        "longitude": -76.41403
      },
      "radius": "",
      "haat": "50",
      "status": "Online"
    },
    {
      "id": "621",
      "name": "Keene 725",
      "frequencyOut": "46X.725",
      "toneIn": "",
      "location": {
        "latitude": 43.0332,
        "longitude": -72.36737
      },
      "radius": "",
      "haat": "350",
      "status": "Online"
    },
    {
      "id": "628",
      "name": "SE Wenatchee Valley 575",
      "frequencyOut": "46X.575",
      "toneIn": "",
      "location": {
        "latitude": 47.41165,
        "longitude": -120.23579
      },
      "radius": "",
      "haat": "100",
      "status": "Online"
    },
    {
      "id": "629",
      "name": "Taft-1",
      "frequencyOut": "46X.725",
      "toneIn": "",
      "location": {
        "latitude": 35.13654,
        "longitude": -119.4776
      },
      "radius": "35",
      "haat": "0",
      "status": "Online"
    },
    {
      "id": "632",
      "name": "Three Trails",
      "frequencyOut": "46X.675",
      "toneIn": "",
      "location": {
        "latitude": 39.11408,
        "longitude": -94.37599
      },
      "radius": "5",
      "haat": "0",
      "status": "Online"
    },
    {
      "id": "638",
      "name": "Sarasota 600",
      "frequencyOut": "46X.600",
      "toneIn": "",
      "location": {
        "latitude": 27.28804,
        "longitude": -82.51578
      },
      "radius": "10",
      "haat": "0",
      "status": "Online"
    },
    {
      "id": "640",
      "name": "Fairgrounds 675",
      "frequencyOut": "46X.675",
      "toneIn": "",
      "location": {
        "latitude": 35.78802,
        "longitude": -78.72069
      },
      "radius": "20",
      "haat": "0",
      "status": "Online"
    },
    {
      "id": "642",
      "name": "Concord 700",
      "frequencyOut": "46X.700",
      "toneIn": "",
      "location": {
        "latitude": 35.39738,
        "longitude": -80.60635
      },
      "radius": "",
      "haat": "250",
      "status": "Online"
    },
    {
      "id": "644",
      "name": "Rockford Information",
      "frequencyOut": "46X.675",
      "toneIn": "",
      "location": {
        "latitude": 42.2669,
        "longitude": -89.07835
      },
      "radius": "15",
      "haat": "0",
      "status": "Online"
    },
    {
      "id": "649",
      "name": "REACT Of The Golden Gate",
      "frequencyOut": "46X.675",
      "toneIn": "",
      "location": {
        "latitude": 37.68436,
        "longitude": -122.42546
      },
      "radius": "35",
      "haat": "0",
      "status": "Online"
    },
    {
      "id": "651",
      "name": "Bethel 725",
      "frequencyOut": "46X.550",
      "toneIn": "",
      "location": {
        "latitude": 36.29545,
        "longitude": -81.83231
      },
      "radius": "",
      "haat": "0",
      "status": "Online"
    },
    {
      "id": "652",
      "name": "Storm Warning (Wx. Spotters)",
      "frequencyOut": "46X.675",
      "toneIn": "",
      "location": {
        "latitude": 39.11411,
        "longitude": -94.37904
      },
      "radius": "5",
      "haat": "0",
      "status": "Online"
    },
    {
      "id": "653",
      "name": "Lidu 1",
      "frequencyOut": "46X.550",
      "toneIn": "",
      "location": {
        "latitude": 33.94004,
        "longitude": -118.12823
      },
      "radius": "",
      "haat": "450",
      "status": "Online"
    },
    {
      "id": "654",
      "name": "tac 1",
      "frequencyOut": "46X.625",
      "toneIn": "",
      "location": {
        "latitude": 40.12196,
        "longitude": -75.34973
      },
      "radius": "10",
      "haat": "0",
      "status": "Online"
    },
    {
      "id": "658",
      "name": "FFRC Kellerman Site1",
      "frequencyOut": "46X.550",
      "toneIn": "",
      "location": {
        "latitude": 38.64191,
        "longitude": -121.09077
      },
      "radius": "",
      "haat": "1000",
      "status": "Offline"
    },
    {
      "id": "663",
      "name": "EMA 600",
      "frequencyOut": "46X.600",
      "toneIn": "",
      "location": {
        "latitude": 41.99371,
        "longitude": -70.73194
      },
      "radius": "",
      "haat": "0",
      "status": "Online"
    },
    {
      "id": "665",
      "name": "COHASSED",
      "frequencyOut": "46X.575",
      "toneIn": "",
      "location": {
        "latitude": 39.9255,
        "longitude": -121.73203
      },
      "radius": "90",
      "haat": "0",
      "status": "Online"
    },
    {
      "id": "666",
      "name": "WQJB378",
      "frequencyOut": "46X.675",
      "toneIn": "",
      "location": {
        "latitude": 41.3613,
        "longitude": -85.06211
      },
      "radius": "10",
      "haat": "0",
      "status": "Offline"
    },
    {
      "id": "674",
      "name": "ERS NY ",
      "frequencyOut": "46X.650",
      "toneIn": "",
      "location": {
        "latitude": 40.75821,
        "longitude": -73.97095
      },
      "radius": "30",
      "haat": "0",
      "status": "Online"
    },
    {
      "id": "683",
      "name": "CedarlooREACT  #3",
      "frequencyOut": "46X.550",
      "toneIn": "",
      "location": {
        "latitude": 42.58039,
        "longitude": -92.16293
      },
      "radius": "",
      "haat": "50",
      "status": "Online"
    },
    {
      "id": "686",
      "name": "EAST RICHMOND HEIGHTS",
      "frequencyOut": "46X.725",
      "toneIn": "",
      "location": {
        "latitude": 37.93885,
        "longitude": -122.32002
      },
      "radius": "40",
      "haat": "0",
      "status": "Online"
    },
    {
      "id": "687",
      "name": "Sierra One",
      "frequencyOut": "46X.725",
      "toneIn": "",
      "location": {
        "latitude": 38.68216,
        "longitude": -120.84681
      },
      "radius": "15",
      "haat": "0",
      "status": "Online"
    },
    {
      "id": "688",
      "name": "550 Lodoga",
      "frequencyOut": "46X.550",
      "toneIn": "",
      "location": {
        "latitude": 39.36191,
        "longitude": -122.44675
      },
      "radius": "",
      "haat": "2000",
      "status": "Online"
    },
    {
      "id": "690",
      "name": "Green Staff",
      "frequencyOut": "46X.550",
      "toneIn": "",
      "location": {
        "latitude": 36.30129,
        "longitude": -82.17979
      },
      "radius": "35",
      "haat": "0",
      "status": "Offline"
    },
    {
      "id": "692",
      "name": "Cherokee 21",
      "frequencyOut": "46X.550",
      "toneIn": "",
      "location": {
        "latitude": 36.11791,
        "longitude": -82.16949
      },
      "radius": "50",
      "haat": "0",
      "status": "Offline"
    },
    {
      "id": "693",
      "name": "Asheville LiNQ",
      "frequencyOut": "46X.550",
      "toneIn": "",
      "location": {
        "latitude": 35.59846,
        "longitude": -82.55314
      },
      "radius": "30",
      "haat": "0",
      "status": "Offline"
    },
    {
      "id": "694",
      "name": "The Bear",
      "frequencyOut": "46X.550",
      "toneIn": "",
      "location": {
        "latitude": 36.22036,
        "longitude": -81.68697
      },
      "radius": "35",
      "haat": "0",
      "status": "Offline"
    },
    {
      "id": "695",
      "name": "Tyler\\'s Tower (GMRS)",
      "frequencyOut": "46X.575",
      "toneIn": "",
      "location": {
        "latitude": 35.90657,
        "longitude": -81.48491
      },
      "radius": "50",
      "haat": "0",
      "status": "Offline"
    },
    {
      "id": "696",
      "name": "Airport GMRS",
      "frequencyOut": "46X.550",
      "toneIn": "",
      "location": {
        "latitude": 35.74846,
        "longitude": -81.37642
      },
      "radius": "20",
      "haat": "0",
      "status": "Offline"
    },
    {
      "id": "697",
      "name": "Piedmont",
      "frequencyOut": "46X.550",
      "toneIn": "",
      "location": {
        "latitude": 35.36755,
        "longitude": -81.95723
      },
      "radius": "30",
      "haat": "0",
      "status": "Offline"
    },
    {
      "id": "700",
      "name": "Old Station",
      "frequencyOut": "46X.550",
      "toneIn": "",
      "location": {
        "latitude": 32.67194,
        "longitude": -117.10542
      },
      "radius": "15",
      "haat": "0",
      "status": "Offline"
    },
    {
      "id": "703",
      "name": "Sierra-2",
      "frequencyOut": "46X.575",
      "toneIn": "",
      "location": {
        "latitude": 36.74069,
        "longitude": -119.78573
      },
      "radius": "",
      "haat": "4000",
      "status": "Online"
    },
    {
      "id": "704",
      "name": "Home-lo",
      "frequencyOut": "46X.625",
      "toneIn": "",
      "location": {
        "latitude": 36.82395,
        "longitude": -119.69659
      },
      "radius": "30",
      "haat": "0",
      "status": "Online"
    },
    {
      "id": "705",
      "name": "Billings 550",
      "frequencyOut": "46X.550",
      "toneIn": "",
      "location": {
        "latitude": 45.80442,
        "longitude": -108.35107
      },
      "radius": "65",
      "haat": "0",
      "status": "Online"
    },
    {
      "id": "712",
      "name": "Parma 625",
      "frequencyOut": "46X.625",
      "toneIn": "",
      "location": {
        "latitude": 41.32836,
        "longitude": -81.69022
      },
      "radius": "",
      "haat": "1200",
      "status": "Online"
    },
    {
      "id": "714",
      "name": "WPRV616 575 Repeater",
      "frequencyOut": "46X.575",
      "toneIn": "",
      "location": {
        "latitude": 40.82125,
        "longitude": -91.15439
      },
      "radius": "10",
      "haat": "0",
      "status": "Online"
    },
    {
      "id": "715",
      "name": "Chickaree Mnt",
      "frequencyOut": "46X.700",
      "toneIn": "",
      "location": {
        "latitude": 40.44982,
        "longitude": -78.88098
      },
      "radius": "25",
      "haat": "0",
      "status": "Online"
    },
    {
      "id": "719",
      "name": "WMA-625",
      "frequencyOut": "46X.625",
      "toneIn": "",
      "location": {
        "latitude": 42.60111,
        "longitude": -72.55646
      },
      "radius": "20",
      "haat": "0",
      "status": "Online"
    },
    {
      "id": "725",
      "name": "Warwick Regional",
      "frequencyOut": "46X.550",
      "toneIn": "",
      "location": {
        "latitude": 41.70695,
        "longitude": -71.39894
      },
      "radius": "",
      "haat": "50",
      "status": "Online"
    },
    {
      "id": "728",
      "name": "HP SANTIAGO",
      "frequencyOut": "46X.550",
      "toneIn": "",
      "location": {
        "latitude": 33.75289,
        "longitude": -117.50702
      },
      "radius": "75",
      "haat": "0",
      "status": "Online"
    },
    {
      "id": "729",
      "name": "HP HEAPS",
      "frequencyOut": "46X.550",
      "toneIn": "",
      "location": {
        "latitude": 34.23458,
        "longitude": -117.14067
      },
      "radius": "65",
      "haat": "0",
      "status": "Online"
    },
    {
      "id": "730",
      "name": "HP RECHE",
      "frequencyOut": "46X.550",
      "toneIn": "",
      "location": {
        "latitude": 33.98636,
        "longitude": -117.2406
      },
      "radius": "40",
      "haat": "0",
      "status": "Online"
    },
    {
      "id": "731",
      "name": "HP OAK GLEN",
      "frequencyOut": "46X.550",
      "toneIn": "",
      "location": {
        "latitude": 34.06233,
        "longitude": -116.88835
      },
      "radius": "80",
      "haat": "0",
      "status": "Online"
    },
    {
      "id": "732",
      "name": "HP DANIEL",
      "frequencyOut": "46X.550",
      "toneIn": "",
      "location": {
        "latitude": 33.82479,
        "longitude": -116.93436
      },
      "radius": "50",
      "haat": "0",
      "status": "Online"
    },
    {
      "id": "733",
      "name": "HP EAST VALLEY",
      "frequencyOut": "46X.550",
      "toneIn": "",
      "location": {
        "latitude": 34.01411,
        "longitude": -117.13786
      },
      "radius": "35",
      "haat": "0",
      "status": "Online"
    },
    {
      "id": "734",
      "name": "FFRC Kellerman Site 2",
      "frequencyOut": "46X.550",
      "toneIn": "",
      "location": {
        "latitude": 38.90332,
        "longitude": -120.061
      },
      "radius": "5",
      "haat": "0",
      "status": "Offline"
    },
    {
      "id": "737",
      "name": "Empirewireless 700",
      "frequencyOut": "46X.700",
      "toneIn": "",
      "location": {
        "latitude": 42.71889,
        "longitude": -75.47247
      },
      "radius": "",
      "haat": "1550",
      "status": "Online"
    },
    {
      "id": "747",
      "name": "Little Valley GMRS",
      "frequencyOut": "46X.600",
      "toneIn": "",
      "location": {
        "latitude": 37.04925,
        "longitude": -113.53826
      },
      "radius": "5",
      "haat": "0",
      "status": "Offline"
    },
    {
      "id": "748",
      "name": "DOWNTOWN-SA",
      "frequencyOut": "46X.650",
      "toneIn": "",
      "location": {
        "latitude": 29.41807,
        "longitude": -98.48831
      },
      "radius": "20",
      "haat": "100",
      "status": "Online"
    },
    {
      "id": "750",
      "name": "Pittsburg Comm",
      "frequencyOut": "46X.650",
      "toneIn": "",
      "location": {
        "latitude": 38.01317,
        "longitude": -121.94489
      },
      "radius": "",
      "haat": "0",
      "status": "Online"
    },
    {
      "id": "752",
      "name": "Ashland 550",
      "frequencyOut": "46X.550",
      "toneIn": "",
      "location": {
        "latitude": 38.76426,
        "longitude": -92.32086
      },
      "radius": "",
      "haat": "100",
      "status": "Online"
    },
    {
      "id": "753",
      "name": "Boonville 700",
      "frequencyOut": "46X.700",
      "toneIn": "",
      "location": {
        "latitude": 38.94713,
        "longitude": -92.74641
      },
      "radius": "",
      "haat": "50",
      "status": "Online"
    },
    {
      "id": "756",
      "name": "HP Box Springs",
      "frequencyOut": "46X.550",
      "toneIn": "",
      "location": {
        "latitude": 33.96949,
        "longitude": -117.29776
      },
      "radius": "40",
      "haat": "0",
      "status": "Online"
    },
    {
      "id": "757",
      "name": "SHARP",
      "frequencyOut": "46X.650",
      "toneIn": "",
      "location": {
        "latitude": 38.65013,
        "longitude": -121.09886
      },
      "radius": "",
      "haat": "950",
      "status": "Online"
    },
    {
      "id": "758",
      "name": "FEC",
      "frequencyOut": "46X.675",
      "toneIn": "",
      "location": {
        "latitude": 42.87905,
        "longitude": -91.82682
      },
      "radius": "25",
      "haat": "0",
      "status": "Online"
    },
    {
      "id": "759",
      "name": "Alpha 1",
      "frequencyOut": "46X.675",
      "toneIn": "",
      "location": {
        "latitude": 34.52321,
        "longitude": -117.21574
      },
      "radius": "",
      "haat": "950",
      "status": "Online"
    },
    {
      "id": "762",
      "name": "Alexandria VA GMRS",
      "frequencyOut": "46X.675",
      "toneIn": "",
      "location": {
        "latitude": 38.80373,
        "longitude": -77.06424
      },
      "radius": "",
      "haat": "150",
      "status": "Online"
    },
    {
      "id": "763",
      "name": "Seattle #6 Repeater",
      "frequencyOut": "46X.675",
      "toneIn": "",
      "location": {
        "latitude": 47.68865,
        "longitude": -122.31663
      },
      "radius": "20",
      "haat": "0",
      "status": "Online"
    },
    {
      "id": "764",
      "name": "Seattle #4 Repeater",
      "frequencyOut": "46X.625",
      "toneIn": "",
      "location": {
        "latitude": 47.6507,
        "longitude": -122.39117
      },
      "radius": "20",
      "haat": "0",
      "status": "Online"
    },
    {
      "id": "768",
      "name": "FFRC Kellerman Site 3",
      "frequencyOut": "46X.550",
      "toneIn": "",
      "location": {
        "latitude": 39.11674,
        "longitude": -120.03319
      },
      "radius": "10",
      "haat": "0",
      "status": "Offline"
    },
    {
      "id": "769",
      "name": "Woodstock 575",
      "frequencyOut": "46X.575",
      "toneIn": "",
      "location": {
        "latitude": 41.92098,
        "longitude": -71.98728
      },
      "radius": "20",
      "haat": "0",
      "status": "Online"
    },
    {
      "id": "770",
      "name": "CC-Net 1",
      "frequencyOut": "46X.550",
      "toneIn": "",
      "location": {
        "latitude": 36.97327,
        "longitude": -84.01373
      },
      "radius": "10",
      "haat": "0",
      "status": "Online"
    },
    {
      "id": "772",
      "name": "WQCM722",
      "frequencyOut": "46X.550",
      "toneIn": "",
      "location": {
        "latitude": 37.63265,
        "longitude": -104.78159
      },
      "radius": "50",
      "haat": "0",
      "status": "Online"
    },
    {
      "id": "773",
      "name": "Delta 1",
      "frequencyOut": "46X.575",
      "toneIn": "",
      "location": {
        "latitude": 37.9691,
        "longitude": -121.70311
      },
      "radius": "30",
      "haat": "0",
      "status": "Online"
    },
    {
      "id": "774",
      "name": "FFRC Kellerman Site 4",
      "frequencyOut": "46X.550",
      "toneIn": "",
      "location": {
        "latitude": 39.59309,
        "longitude": -119.19234
      },
      "radius": "15",
      "haat": "0",
      "status": "Offline"
    },
    {
      "id": "775",
      "name": "FFRC Kellerman Site 5",
      "frequencyOut": "46X.550",
      "toneIn": "",
      "location": {
        "latitude": 38.72838,
        "longitude": -116.57593
      },
      "radius": "",
      "haat": "4000",
      "status": "Offline"
    },
    {
      "id": "776",
      "name": "EMA 575",
      "frequencyOut": "46X.575",
      "toneIn": "",
      "location": {
        "latitude": 42.06741,
        "longitude": -70.80863
      },
      "radius": "10",
      "haat": "0",
      "status": "Online"
    },
    {
      "id": "783",
      "name": "WQFF822",
      "frequencyOut": "46X.625",
      "toneIn": "",
      "location": {
        "latitude": 40.003,
        "longitude": -75.27011
      },
      "radius": "30",
      "haat": "0",
      "status": "Online"
    },
    {
      "id": "784",
      "name": "Wqez375",
      "frequencyOut": "46X.700",
      "toneIn": "",
      "location": {
        "latitude": 39.90477,
        "longitude": -75.31097
      },
      "radius": "25",
      "haat": "0",
      "status": "Online"
    },
    {
      "id": "787",
      "name": "JPV600",
      "frequencyOut": "46X.600",
      "toneIn": "",
      "location": {
        "latitude": 28.03149,
        "longitude": -81.81948
      },
      "radius": "",
      "haat": "50",
      "status": "Online"
    },
    {
      "id": "790",
      "name": "DRS R1",
      "frequencyOut": "46X.650",
      "toneIn": "",
      "location": {
        "latitude": 37.88942,
        "longitude": -122.29324
      },
      "radius": "10",
      "haat": "0",
      "status": "Online"
    },
    {
      "id": "793",
      "name": "Sacramento Metro",
      "frequencyOut": "46X.725",
      "toneIn": "",
      "location": {
        "latitude": 39.13449,
        "longitude": -121.10058
      },
      "radius": "70",
      "haat": "0",
      "status": "Offline"
    },
    {
      "id": "798",
      "name": "WQJZ440  ",
      "frequencyOut": "46X.575",
      "toneIn": "",
      "location": {
        "latitude": 34.16324,
        "longitude": -118.19675
      },
      "radius": "",
      "haat": "850",
      "status": "Online"
    },
    {
      "id": "800",
      "name": "Pleasanton 725",
      "frequencyOut": "46X.725",
      "toneIn": "",
      "location": {
        "latitude": 37.6955,
        "longitude": -121.86529
      },
      "radius": "5",
      "haat": "0",
      "status": "Offline"
    },
    {
      "id": "801",
      "name": "Auburn 650",
      "frequencyOut": "46X.650",
      "toneIn": "",
      "location": {
        "latitude": 38.85455,
        "longitude": -121.1071
      },
      "radius": "15",
      "haat": "0",
      "status": "Online"
    },
    {
      "id": "807",
      "name": "Mon550",
      "frequencyOut": "46X.550",
      "toneIn": "",
      "location": {
        "latitude": 40.21048,
        "longitude": -79.9044
      },
      "radius": "55",
      "haat": "0",
      "status": "Offline"
    },
    {
      "id": "812",
      "name": "BEAR-2",
      "frequencyOut": "46X.675",
      "toneIn": "",
      "location": {
        "latitude": 46.24872,
        "longitude": -114.15587
      },
      "radius": "50",
      "haat": "0",
      "status": "Online"
    },
    {
      "id": "814",
      "name": "Valley 1",
      "frequencyOut": "46X.575",
      "toneIn": "",
      "location": {
        "latitude": 34.13795,
        "longitude": -118.03917
      },
      "radius": "10",
      "haat": "0",
      "status": "Offline"
    },
    {
      "id": "815",
      "name": "203 - Doug",
      "frequencyOut": "46X.625",
      "toneIn": "",
      "location": {
        "latitude": 42.26237,
        "longitude": -88.14241
      },
      "radius": "5",
      "haat": "0",
      "status": "Online"
    },
    {
      "id": "817",
      "name": "Delta Junction 5500",
      "frequencyOut": "46X.550",
      "toneIn": "",
      "location": {
        "latitude": 64.05662,
        "longitude": -145.65382
      },
      "radius": "",
      "haat": "1250",
      "status": "Online"
    },
    {
      "id": "818",
      "name": "MichUPATV",
      "frequencyOut": "46X.600",
      "toneIn": "",
      "location": {
        "latitude": 46.64658,
        "longitude": -85.36025
      },
      "radius": "10",
      "haat": "0",
      "status": "Online"
    },
    {
      "id": "819",
      "name": "Chesco 725",
      "frequencyOut": "46X.725",
      "toneIn": "",
      "location": {
        "latitude": 40.04067,
        "longitude": -75.47958
      },
      "radius": "",
      "haat": "0",
      "status": "Online"
    },
    {
      "id": "820",
      "name": "Menifee 550",
      "frequencyOut": "46X.550",
      "toneIn": "",
      "location": {
        "latitude": 33.63706,
        "longitude": -117.20249
      },
      "radius": "15",
      "haat": "0",
      "status": "Online"
    },
    {
      "id": "821",
      "name": "Menifee 575",
      "frequencyOut": "46X.575",
      "toneIn": "",
      "location": {
        "latitude": 33.6372,
        "longitude": -117.20232
      },
      "radius": "10",
      "haat": "0",
      "status": "Online"
    },
    {
      "id": "822",
      "name": "Meadow Creek",
      "frequencyOut": "46X.550",
      "toneIn": "",
      "location": {
        "latitude": 35.77637,
        "longitude": -92.33365
      },
      "radius": "",
      "haat": "50",
      "status": "Online"
    },
    {
      "id": "823",
      "name": "Rock Hill 700",
      "frequencyOut": "46X.700",
      "toneIn": "",
      "location": {
        "latitude": 34.95645,
        "longitude": -81.05121
      },
      "radius": "10",
      "haat": "0",
      "status": "Online"
    },
    {
      "id": "825",
      "name": "Otis",
      "frequencyOut": "46X.675",
      "toneIn": "",
      "location": {
        "latitude": 42.2036,
        "longitude": -73.1159
      },
      "radius": "5",
      "haat": "0",
      "status": "Online"
    },
    {
      "id": "827",
      "name": "West 1",
      "frequencyOut": "46X.725",
      "toneIn": "",
      "location": {
        "latitude": 42.98963,
        "longitude": -88.02308
      },
      "radius": "5",
      "haat": "0",
      "status": "Online"
    },
    {
      "id": "832",
      "name": "NTX 550",
      "frequencyOut": "46X.550",
      "toneIn": "",
      "location": {
        "latitude": 33.22375,
        "longitude": -96.45103
      },
      "radius": "50",
      "haat": "0",
      "status": "Online"
    },
    {
      "id": "833",
      "name": "NTX 575",
      "frequencyOut": "46X.575",
      "toneIn": "",
      "location": {
        "latitude": 33.4704,
        "longitude": -96.67557
      },
      "radius": "50",
      "haat": "0",
      "status": "Online"
    },
    {
      "id": "834",
      "name": "Taft-2-senior citizens",
      "frequencyOut": "46X.625",
      "toneIn": "",
      "location": {
        "latitude": 35.13658,
        "longitude": -119.47775
      },
      "radius": "",
      "haat": "0",
      "status": "Online"
    },
    {
      "id": "835",
      "name": "Arlington SE",
      "frequencyOut": "46X.725",
      "toneIn": "",
      "location": {
        "latitude": 32.69613,
        "longitude": -97.09007
      },
      "radius": "20",
      "haat": "0",
      "status": "Online"
    },
    {
      "id": "838",
      "name": "M1",
      "frequencyOut": "46X.625",
      "toneIn": "",
      "location": {
        "latitude": 45.84919,
        "longitude": -119.28861
      },
      "radius": "20",
      "haat": "0",
      "status": "Online"
    },
    {
      "id": "849",
      "name": "Parkersburg 600",
      "frequencyOut": "46X.600",
      "toneIn": "",
      "location": {
        "latitude": 39.28555,
        "longitude": -81.54259
      },
      "radius": "5",
      "haat": "0",
      "status": "Offline"
    },
    {
      "id": "850",
      "name": "Oregon City 575",
      "frequencyOut": "46X.575",
      "toneIn": "",
      "location": {
        "latitude": 45.33652,
        "longitude": -122.59278
      },
      "radius": "",
      "haat": "50",
      "status": "Online"
    },
    {
      "id": "851",
      "name": "ATL-650- Newnan ",
      "frequencyOut": "46X.650",
      "toneIn": "",
      "location": {
        "latitude": 33.44273,
        "longitude": -84.73697
      },
      "radius": "25",
      "haat": "0",
      "status": "Online"
    },
    {
      "id": "854",
      "name": "Local 3",
      "frequencyOut": "46X.600",
      "toneIn": "",
      "location": {
        "latitude": 40.60024,
        "longitude": -112.47
      },
      "radius": "",
      "haat": "0",
      "status": "Online"
    },
    {
      "id": "855",
      "name": "Crest675 Emerald Coast Communication Team Repeater",
      "frequencyOut": "46X.675",
      "toneIn": "",
      "location": {
        "latitude": 30.75806,
        "longitude": -86.573
      },
      "radius": "",
      "haat": "300",
      "status": "Online"
    },
    {
      "id": "856",
      "name": "Q Comm 575",
      "frequencyOut": "46X.575",
      "toneIn": "",
      "location": {
        "latitude": 35.12468,
        "longitude": -106.50627
      },
      "radius": "40",
      "haat": "0",
      "status": "Online"
    },
    {
      "id": "857",
      "name": "Armored 1",
      "frequencyOut": "46X.700",
      "toneIn": "",
      "location": {
        "latitude": 42.93682,
        "longitude": -88.17515
      },
      "radius": "35",
      "haat": "0",
      "status": "Online"
    },
    {
      "id": "859",
      "name": "Locust 326",
      "frequencyOut": "46X.575",
      "toneIn": "",
      "location": {
        "latitude": 32.72926,
        "longitude": -94.94275
      },
      "radius": "25",
      "haat": "0",
      "status": "Online"
    },
    {
      "id": "863",
      "name": "East Olympia",
      "frequencyOut": "46X.725",
      "toneIn": "",
      "location": {
        "latitude": 46.95943,
        "longitude": -122.8017
      },
      "radius": "",
      "haat": "0",
      "status": "Online"
    },
    {
      "id": "864",
      "name": "FM21 ",
      "frequencyOut": "46X.700",
      "toneIn": "",
      "location": {
        "latitude": 33.02594,
        "longitude": -95.09148
      },
      "radius": "",
      "haat": "100",
      "status": "Online"
    },
    {
      "id": "866",
      "name": "Local 1",
      "frequencyOut": "46X.550",
      "toneIn": "",
      "location": {
        "latitude": 40.59993,
        "longitude": -112.46676
      },
      "radius": "10",
      "haat": "0",
      "status": "Offline"
    },
    {
      "id": "870",
      "name": "Mesa 725",
      "frequencyOut": "46X.725",
      "toneIn": "",
      "location": {
        "latitude": 33.4328,
        "longitude": -111.8397
      },
      "radius": "",
      "haat": "100",
      "status": "Online"
    },
    {
      "id": "871",
      "name": "Glendale 1",
      "frequencyOut": "46X.650",
      "toneIn": "",
      "location": {
        "latitude": 33.58974,
        "longitude": -112.17925
      },
      "radius": "15",
      "haat": "0",
      "status": "Offline"
    },
    {
      "id": "874",
      "name": "AV 650",
      "frequencyOut": "46X.650",
      "toneIn": "",
      "location": {
        "latitude": 34.57923,
        "longitude": -118.11657
      },
      "radius": "",
      "haat": "3400",
      "status": "Online"
    },
    {
      "id": "878",
      "name": "Nashua",
      "frequencyOut": "46X.625",
      "toneIn": "",
      "location": {
        "latitude": 42.75837,
        "longitude": -71.46421
      },
      "radius": "20",
      "haat": "0",
      "status": "Online"
    },
    {
      "id": "879",
      "name": "Hudson",
      "frequencyOut": "46X.700",
      "toneIn": "",
      "location": {
        "latitude": 42.7334,
        "longitude": -71.41457
      },
      "radius": "5",
      "haat": "0",
      "status": "Online"
    },
    {
      "id": "888",
      "name": "PAHRUMP-1",
      "frequencyOut": "46X.650",
      "toneIn": "",
      "location": {
        "latitude": 36.19803,
        "longitude": -116.03636
      },
      "radius": "25",
      "haat": "0",
      "status": "Online"
    },
    {
      "id": "889",
      "name": "Kevin725",
      "frequencyOut": "46X.725",
      "toneIn": "",
      "location": {
        "latitude": 41.6745,
        "longitude": -72.94619
      },
      "radius": "",
      "haat": "100",
      "status": "Online"
    },
    {
      "id": "894",
      "name": "LALOWELL RPT- 650",
      "frequencyOut": "46X.650",
      "toneIn": "",
      "location": {
        "latitude": 42.64435,
        "longitude": -71.32175
      },
      "radius": "",
      "haat": "0",
      "status": "Online"
    },
    {
      "id": "895",
      "name": "Warren 575 ",
      "frequencyOut": "46X.575",
      "toneIn": "",
      "location": {
        "latitude": 40.61268,
        "longitude": -74.49831
      },
      "radius": "5",
      "haat": "0",
      "status": "Online"
    },
    {
      "id": "898",
      "name": "Taylorsville",
      "frequencyOut": "46X.550",
      "toneIn": "",
      "location": {
        "latitude": 35.92307,
        "longitude": -81.17488
      },
      "radius": "50",
      "haat": "150",
      "status": "Offline"
    },
    {
      "id": "899",
      "name": "Wilksboro",
      "frequencyOut": "46X.550",
      "toneIn": "",
      "location": {
        "latitude": 36.14814,
        "longitude": -81.15272
      },
      "radius": "",
      "haat": "150",
      "status": "Online"
    },
    {
      "id": "900",
      "name": "RidleyPrk575",
      "frequencyOut": "46X.550",
      "toneIn": "",
      "location": {
        "latitude": 39.88119,
        "longitude": -75.32325
      },
      "radius": "10",
      "haat": "0",
      "status": "Online"
    },
    {
      "id": "902",
      "name": "Tac 1",
      "frequencyOut": "46X.675",
      "toneIn": "",
      "location": {
        "latitude": 40.11446,
        "longitude": -75.3393
      },
      "radius": "",
      "haat": "50",
      "status": "Online"
    },
    {
      "id": "904",
      "name": "OPS SOUTH",
      "frequencyOut": "46X.700",
      "toneIn": "",
      "location": {
        "latitude": 37.04984,
        "longitude": -96.93598
      },
      "radius": "15",
      "haat": "0",
      "status": "Online"
    },
    {
      "id": "905",
      "name": "Tnn",
      "frequencyOut": "46X.550",
      "toneIn": "",
      "location": {
        "latitude": 43.07212,
        "longitude": -87.98534
      },
      "radius": "5",
      "haat": "0",
      "status": "Online"
    },
    {
      "id": "906",
      "name": "West Gmrs ",
      "frequencyOut": "46X.725",
      "toneIn": "",
      "location": {
        "latitude": 42.98908,
        "longitude": -88.0225
      },
      "radius": "5",
      "haat": "0",
      "status": "Online"
    },
    {
      "id": "907",
      "name": "Brick Repeater",
      "frequencyOut": "46X.650",
      "toneIn": "",
      "location": {
        "latitude": 40.09044,
        "longitude": -74.14448
      },
      "radius": "35",
      "haat": "0",
      "status": "Online"
    },
    {
      "id": "908",
      "name": "A+ ECR-2 (Paired W/ECS-1 Simplex)",
      "frequencyOut": "46X.725",
      "toneIn": "",
      "location": {
        "latitude": 39.36284,
        "longitude": -76.78264
      },
      "radius": "",
      "haat": "0",
      "status": "Offline"
    },
    {
      "id": "912",
      "name": "GA-575-Summerville",
      "frequencyOut": "46X.575",
      "toneIn": "",
      "location": {
        "latitude": 34.46874,
        "longitude": -85.29759
      },
      "radius": "40",
      "haat": "0",
      "status": "Online"
    },
    {
      "id": "913",
      "name": " WQLK338   650",
      "frequencyOut": "46X.650",
      "toneIn": "",
      "location": {
        "latitude": 40.72774,
        "longitude": -91.20609
      },
      "radius": "",
      "haat": "0",
      "status": "Online"
    },
    {
      "id": "918",
      "name": "Chat 700-East Brainerd",
      "frequencyOut": "46X.700",
      "toneIn": "",
      "location": {
        "latitude": 35.0018,
        "longitude": -85.12593
      },
      "radius": "30",
      "haat": "0",
      "status": "Offline"
    },
    {
      "id": "920",
      "name": "Paris 700",
      "frequencyOut": "46X.700",
      "toneIn": "",
      "location": {
        "latitude": 33.66346,
        "longitude": -95.54037
      },
      "radius": "",
      "haat": "50",
      "status": "Online"
    },
    {
      "id": "921",
      "name": "Milton 700",
      "frequencyOut": "46X.700",
      "toneIn": "",
      "location": {
        "latitude": 43.4441,
        "longitude": -71.01507
      },
      "radius": "",
      "haat": "150",
      "status": "Online"
    },
    {
      "id": "922",
      "name": "Gainesville 700",
      "frequencyOut": "46X.700",
      "toneIn": "",
      "location": {
        "latitude": 33.55713,
        "longitude": -97.20051
      },
      "radius": "",
      "haat": "850",
      "status": "Online"
    },
    {
      "id": "924",
      "name": "RCEMHS-ESU",
      "frequencyOut": "46X.550",
      "toneIn": "",
      "location": {
        "latitude": 45.02172,
        "longitude": -93.07894
      },
      "radius": "",
      "haat": "100",
      "status": "Online"
    },
    {
      "id": "925",
      "name": "VAIL ARIZONA 575",
      "frequencyOut": "46X.575",
      "toneIn": "",
      "location": {
        "latitude": 31.97779,
        "longitude": -110.71404
      },
      "radius": "",
      "haat": "150",
      "status": "Online"
    },
    {
      "id": "926",
      "name": "Parkway 575",
      "frequencyOut": "46X.575",
      "toneIn": "",
      "location": {
        "latitude": 38.47294,
        "longitude": -121.43721
      },
      "radius": "5",
      "haat": "0",
      "status": "Online"
    },
    {
      "id": "929",
      "name": "Redding586",
      "frequencyOut": "46X.700",
      "toneIn": "",
      "location": {
        "latitude": 40.5725,
        "longitude": -122.37534
      },
      "radius": "5",
      "haat": "0",
      "status": "Online"
    },
    {
      "id": "930",
      "name": "WQOM273 - 1",
      "frequencyOut": "46X.725",
      "toneIn": "",
      "location": {
        "latitude": 39.73085,
        "longitude": -82.59429
      },
      "radius": "15",
      "haat": "0",
      "status": "Online"
    },
    {
      "id": "933",
      "name": "ITFAIS GMRS",
      "frequencyOut": "46X.600",
      "toneIn": "",
      "location": {
        "latitude": 36.39527,
        "longitude": -81.29321
      },
      "radius": "15",
      "haat": "0",
      "status": "Online"
    },
    {
      "id": "935",
      "name": "FFRC Kellerman Site 6",
      "frequencyOut": "46X.550",
      "toneIn": "",
      "location": {
        "latitude": 38.7633,
        "longitude": -120.57399
      },
      "radius": "",
      "haat": "4000",
      "status": "Offline"
    },
    {
      "id": "936",
      "name": "FFRC Kellerman Site 7",
      "frequencyOut": "46X.550",
      "toneIn": "",
      "location": {
        "latitude": 40.47806,
        "longitude": -120.68215
      },
      "radius": "",
      "haat": "4000",
      "status": "Offline"
    },
    {
      "id": "937",
      "name": "Mt Bullion",
      "frequencyOut": "46X.600",
      "toneIn": "",
      "location": {
        "latitude": 37.54131,
        "longitude": -120.04623
      },
      "radius": "",
      "haat": "0",
      "status": "Online"
    },
    {
      "id": "941",
      "name": "WQGQ779",
      "frequencyOut": "46X.575",
      "toneIn": "",
      "location": {
        "latitude": 40.66866,
        "longitude": -74.20372
      },
      "radius": "",
      "haat": "0",
      "status": "Online"
    },
    {
      "id": "942",
      "name": "625 Baltimore",
      "frequencyOut": "46X.625",
      "toneIn": "",
      "location": {
        "latitude": 39.29332,
        "longitude": -76.61419
      },
      "radius": "25",
      "haat": "0",
      "status": "Online"
    },
    {
      "id": "944",
      "name": "NorCalSkywarn Mobile",
      "frequencyOut": "46X.625",
      "toneIn": "",
      "location": {
        "latitude": 38.67063,
        "longitude": -121.37657
      },
      "radius": "5",
      "haat": "0",
      "status": "Online"
    },
    {
      "id": "947",
      "name": "Local 5",
      "frequencyOut": "46X.650",
      "toneIn": "",
      "location": {
        "latitude": 40.59981,
        "longitude": -112.47356
      },
      "radius": "10",
      "haat": "0",
      "status": "Offline"
    },
    {
      "id": "950",
      "name": "West Side",
      "frequencyOut": "46X.650",
      "toneIn": "",
      "location": {
        "latitude": 32.16341,
        "longitude": -81.91493
      },
      "radius": "",
      "haat": "50",
      "status": "Online"
    },
    {
      "id": "951",
      "name": "Crest575",
      "frequencyOut": "46X.575",
      "toneIn": "",
      "location": {
        "latitude": 30.77075,
        "longitude": -86.55373
      },
      "radius": "",
      "haat": "50",
      "status": "Online"
    },
    {
      "id": "954",
      "name": "Berlin 600",
      "frequencyOut": "46X.600",
      "toneIn": "",
      "location": {
        "latitude": 41.62622,
        "longitude": -72.78923
      },
      "radius": "",
      "haat": "50",
      "status": "Offline"
    },
    {
      "id": "955",
      "name": "Evans County Tactical",
      "frequencyOut": "46X.575",
      "toneIn": "",
      "location": {
        "latitude": 32.2348,
        "longitude": -81.92167
      },
      "radius": "",
      "haat": "150",
      "status": "Offline"
    },
    {
      "id": "956",
      "name": "Shorline",
      "frequencyOut": "46X.600",
      "toneIn": "",
      "location": {
        "latitude": 47.75652,
        "longitude": -122.34667
      },
      "radius": "",
      "haat": "0",
      "status": "Online"
    },
    {
      "id": "961",
      "name": "Hodag",
      "frequencyOut": "46X.575",
      "toneIn": "",
      "location": {
        "latitude": 45.65197,
        "longitude": -89.41704
      },
      "radius": "25",
      "haat": "0",
      "status": "Online"
    },
    {
      "id": "964",
      "name": "AC 650",
      "frequencyOut": "46X.650",
      "toneIn": "",
      "location": {
        "latitude": 32.74541,
        "longitude": -111.68358
      },
      "radius": "50",
      "haat": "0",
      "status": "Online"
    },
    {
      "id": "965",
      "name": "Red ValleyAZ 550",
      "frequencyOut": "46X.550",
      "toneIn": "",
      "location": {
        "latitude": 36.46547,
        "longitude": -109.1169
      },
      "radius": "75",
      "haat": "0",
      "status": "Online"
    },
    {
      "id": "966",
      "name": "FarmingtonNM 550",
      "frequencyOut": "46X.550",
      "toneIn": "",
      "location": {
        "latitude": 36.76172,
        "longitude": -108.18066
      },
      "radius": "30",
      "haat": "500",
      "status": "Online"
    },
    {
      "id": "967",
      "name": "MancosCO 550",
      "frequencyOut": "46X.550",
      "toneIn": "",
      "location": {
        "latitude": 37.36852,
        "longitude": -108.1089
      },
      "radius": "75",
      "haat": "0",
      "status": "Online"
    },
    {
      "id": "968",
      "name": "Rocky Hill Repeater",
      "frequencyOut": "46X.650",
      "toneIn": "",
      "location": {
        "latitude": 43.6976,
        "longitude": -70.36383
      },
      "radius": "25",
      "haat": "0",
      "status": "Online"
    },
    {
      "id": "969",
      "name": "Streaked Mountain Repeater",
      "frequencyOut": "46X.725",
      "toneIn": "",
      "location": {
        "latitude": 44.24766,
        "longitude": -70.4155
      },
      "radius": "55",
      "haat": "0",
      "status": "Online"
    },
    {
      "id": "972",
      "name": "WQOR693 625",
      "frequencyOut": "46X.625",
      "toneIn": "",
      "location": {
        "latitude": 39.67088,
        "longitude": -104.86603
      },
      "radius": "5",
      "haat": "0",
      "status": "Online"
    },
    {
      "id": "975",
      "name": "KC675",
      "frequencyOut": "46X.675",
      "toneIn": "",
      "location": {
        "latitude": 39.03935,
        "longitude": -94.58889
      },
      "radius": "30",
      "haat": "0",
      "status": "Online"
    },
    {
      "id": "982",
      "name": "River Plaza",
      "frequencyOut": "46X.575",
      "toneIn": "",
      "location": {
        "latitude": 40.34406,
        "longitude": -74.09532
      },
      "radius": "",
      "haat": "100",
      "status": "Online"
    },
    {
      "id": "986",
      "name": "Westchester Amateur Radio Club",
      "frequencyOut": "46X.700",
      "toneIn": "",
      "location": {
        "latitude": 41.13316,
        "longitude": -73.72766
      },
      "radius": "25",
      "haat": "0",
      "status": "Online"
    },
    {
      "id": "987",
      "name": "Williams Hill 700",
      "frequencyOut": "46X.700",
      "toneIn": "",
      "location": {
        "latitude": 37.57819,
        "longitude": -88.47376
      },
      "radius": "40",
      "haat": "0",
      "status": "Online"
    },
    {
      "id": "992",
      "name": "Family Com",
      "frequencyOut": "46X.550",
      "toneIn": "",
      "location": {
        "latitude": 41.64226,
        "longitude": -91.47766
      },
      "radius": "25",
      "haat": "0",
      "status": "Online"
    },
    {
      "id": "994",
      "name": "Richland 600",
      "frequencyOut": "46X.600",
      "toneIn": "",
      "location": {
        "latitude": 40.26807,
        "longitude": -78.84089
      },
      "radius": "10",
      "haat": "0",
      "status": "Online"
    },
    {
      "id": "995",
      "name": "Wqkn536 Santa Cruz Mountains",
      "frequencyOut": "46X.575",
      "toneIn": "",
      "location": {
        "latitude": 37.15156,
        "longitude": -121.93726
      },
      "radius": "",
      "haat": "3650",
      "status": "Online"
    },
    {
      "id": "1004",
      "name": "Glendale 2",
      "frequencyOut": "46X.675",
      "toneIn": "",
      "location": {
        "latitude": 33.59128,
        "longitude": -112.16934
      },
      "radius": "25",
      "haat": "0",
      "status": "Online"
    },
    {
      "id": "1007",
      "name": "Iron Mountain 600 (NEWC)",
      "frequencyOut": "46X.600",
      "toneIn": "",
      "location": {
        "latitude": 45.80781,
        "longitude": -88.02188
      },
      "radius": "",
      "haat": "200",
      "status": "Offline"
    },
    {
      "id": "1011",
      "name": "Lawrence",
      "frequencyOut": "46X.675",
      "toneIn": "",
      "location": {
        "latitude": 38.91909,
        "longitude": -95.20288
      },
      "radius": "",
      "haat": "1000",
      "status": "Online"
    },
    {
      "id": "1012",
      "name": "Williamsport 675 WQGU515",
      "frequencyOut": "46X.675",
      "toneIn": "",
      "location": {
        "latitude": 41.2036,
        "longitude": -76.96407
      },
      "radius": "",
      "haat": "1150",
      "status": "Online"
    },
    {
      "id": "1017",
      "name": "Skyball Mtn",
      "frequencyOut": "46X.600",
      "toneIn": "",
      "location": {
        "latitude": 34.0067,
        "longitude": -86.6519
      },
      "radius": "",
      "haat": "400",
      "status": "Online"
    },
    {
      "id": "1019",
      "name": "Metrokcecs911",
      "frequencyOut": "46X.675",
      "toneIn": "",
      "location": {
        "latitude": 39.18281,
        "longitude": -94.6146
      },
      "radius": "20",
      "haat": "0",
      "status": "Online"
    },
    {
      "id": "1026",
      "name": "A+ ECS-1 (Paired W/ECR-2 Repeater)",
      "frequencyOut": "46X.725",
      "toneIn": "",
      "location": {
        "latitude": 39.37186,
        "longitude": -76.80147
      },
      "radius": "",
      "haat": "0",
      "status": "Online"
    },
    {
      "id": "1040",
      "name": "EMPIREWIRELESS700",
      "frequencyOut": "46X.700",
      "toneIn": "",
      "location": {
        "latitude": 42.9472,
        "longitude": -75.5426
      },
      "radius": "",
      "haat": "1550",
      "status": "Online"
    },
    {
      "id": "1041",
      "name": "Hazzy\\\\\\'s",
      "frequencyOut": "46X.550",
      "toneIn": "",
      "location": {
        "latitude": 46.90809,
        "longitude": -67.80515
      },
      "radius": "15",
      "haat": "0",
      "status": "Online"
    },
    {
      "id": "1042",
      "name": "Paso Robles Radio Ranch",
      "frequencyOut": "46X.600",
      "toneIn": "",
      "location": {
        "latitude": 35.62637,
        "longitude": -120.7129
      },
      "radius": "10",
      "haat": "0",
      "status": "Online"
    },
    {
      "id": "1044",
      "name": "SBRG-BK",
      "frequencyOut": "46X.550",
      "toneIn": "",
      "location": {
        "latitude": 40.60718,
        "longitude": -73.94142
      },
      "radius": "15",
      "haat": "0",
      "status": "Offline"
    },
    {
      "id": "1046",
      "name": "Imperial 700",
      "frequencyOut": "46X.700",
      "toneIn": "",
      "location": {
        "latitude": 27.95222,
        "longitude": -81.92243
      },
      "radius": "",
      "haat": "50",
      "status": "Online"
    },
    {
      "id": "1051",
      "name": "Palmetto 700",
      "frequencyOut": "46X.700",
      "toneIn": "",
      "location": {
        "latitude": 27.55896,
        "longitude": -82.54732
      },
      "radius": "",
      "haat": "100",
      "status": "Online"
    },
    {
      "id": "1052",
      "name": "JPL USAR 550",
      "frequencyOut": "46X.550",
      "toneIn": "",
      "location": {
        "latitude": 34.20434,
        "longitude": -118.17589
      },
      "radius": "10",
      "haat": "0",
      "status": "Online"
    },
    {
      "id": "1053",
      "name": "Putnam West",
      "frequencyOut": "46X.700",
      "toneIn": "",
      "location": {
        "latitude": 41.34856,
        "longitude": -73.92104
      },
      "radius": "",
      "haat": "850",
      "status": "Online"
    },
    {
      "id": "1054",
      "name": "Epic 1",
      "frequencyOut": "46X.650",
      "toneIn": "",
      "location": {
        "latitude": 37.25356,
        "longitude": -119.75853
      },
      "radius": "40",
      "haat": "0",
      "status": "Online"
    },
    {
      "id": "1057",
      "name": "DCR Channel 1",
      "frequencyOut": "46X.675",
      "toneIn": "",
      "location": {
        "latitude": 32.79074,
        "longitude": -96.7923
      },
      "radius": "40",
      "haat": "0",
      "status": "Online"
    },
    {
      "id": "1063",
      "name": "WQPG386 Pasadena",
      "frequencyOut": "46X.550",
      "toneIn": "",
      "location": {
        "latitude": 29.60689,
        "longitude": -95.17937
      },
      "radius": "",
      "haat": "50",
      "status": "Online"
    },
    {
      "id": "1066",
      "name": "Aledo 550",
      "frequencyOut": "46X.550",
      "toneIn": "",
      "location": {
        "latitude": 41.19496,
        "longitude": -90.75372
      },
      "radius": "5",
      "haat": "0",
      "status": "Online"
    },
    {
      "id": "1067",
      "name": "Pembroke 575",
      "frequencyOut": "46X.575",
      "toneIn": "",
      "location": {
        "latitude": 43.2192,
        "longitude": -71.44057
      },
      "radius": "",
      "haat": "0",
      "status": "Online"
    },
    {
      "id": "1068",
      "name": "GA-575-Devereux",
      "frequencyOut": "46X.575",
      "toneIn": "",
      "location": {
        "latitude": 33.12749,
        "longitude": -83.10024
      },
      "radius": "35",
      "haat": "0",
      "status": "Online"
    },
    {
      "id": "1069",
      "name": "GA-700-Sparta",
      "frequencyOut": "46X.700",
      "toneIn": "",
      "location": {
        "latitude": 33.28462,
        "longitude": -82.96051
      },
      "radius": "30",
      "haat": "0",
      "status": "Online"
    },
    {
      "id": "1074",
      "name": "Mountain Top",
      "frequencyOut": "46X.550",
      "toneIn": "",
      "location": {
        "latitude": 38.98717,
        "longitude": -121.04668
      },
      "radius": "70",
      "haat": "0",
      "status": "Online"
    },
    {
      "id": "1076",
      "name": "Richford 884",
      "frequencyOut": "46X.575",
      "toneIn": "",
      "location": {
        "latitude": 45.00382,
        "longitude": -72.68257
      },
      "radius": "",
      "haat": "50",
      "status": "Offline"
    },